name,price_range,stars,neighborhood,business_id,hours,is_open,address,review_count,longitude,latitude,postal_code,cuisine
Test Turkish,1,4,Church-Wellesley Village,eZQV20xRXOuqR1Hej3nEqA,,1,13 Hayden Street,3,-79.3858528,43.6694377,M4Y 2P2,Turkish
Test Turkish,1,4,Church-Wellesley Village,eZQV20xRXOuqR1Hej3nEqA,,1,13 Hayden Street,3,-79.3858528,43.6694377,M4Y 2P2,Turkish
Test Turkish 2,1,4,Church-Wellesley Village,eZQV20xRXOuqR1Hej3nEqA,,1,13 Hayden Street,3,-79.3858528,43.6694376,M4Y 2P2,Turkish
Test Turkish 3,1,4,Church-Wellesley Village,eZQV20xRXOuqR1Hej3nEqA,,1,13 Hayden Street,3,-79.3858528,43.6694375,M4Y 2P2,Turkish
Test Turkish 4,1,4,Church-Wellesley Village,eZQV20xRXOuqR1Hej3nEqA,,1,13 Hayden Street,3,-79.3858528,43.6694374,M4Y 2P2,Turkish
Test Turkish 4,1,4,Church-Wellesley Village,eZQV20xRXOuqR1Hej3nEqA,,1,13 Hayden Street,3,-79.3858528,43.6694373,M4Y 2P2,Turkish
Test Turkish 4,1,4,Church-Wellesley Village,eZQV20xRXOuqR1Hej3nEqA,,1,13 Hayden Street,3,-79.3858528,43.6694372,M4Y 2P2,Turkish
Test Greek,1,4,Church-Wellesley Village,eZQV20xRXOuqR1Hej3nEqA,,1,13 Hayden Street,3,-79.3858528,43.6694377,M4Y 2P2,Greek
Test Greek 2,1,4,Church-Wellesley Village,eZQV20xRXOuqR1Hej3nEqA,,1,13 Hayden Street,3,-79.3858528,43.6694376,M4Y 2P2,Greek
Test Greek 3,1,4,Church-Wellesley Village,eZQV20xRXOuqR1Hej3nEqA,,1,13 Hayden Street,3,-79.3858528,43.6694375,M4Y 2P2,Greek
Test Greek 4,1,4,Church-Wellesley Village,eZQV20xRXOuqR1Hej3nEqA,,1,13 Hayden Street,3,-79.3858528,43.6694374,M4Y 2P2,Greek
Test Greek 4,1,4,Church-Wellesley Village,eZQV20xRXOuqR1Hej3nEqA,,1,13 Hayden Street,3,-79.3858528,43.6694373,M4Y 2P2,Greek
Test Greek 4,1,4,Church-Wellesley Village,eZQV20xRXOuqR1Hej3nEqA,,1,13 Hayden Street,3,-79.3858528,43.6694372,M4Y 2P2,Greek
Test A,1,4,Church-Wellesley Village,eZQV20xRXOuqR1Hej3nEqA,,1,13 Hayden Street,3,-79.3858528,43.6694377,M4Y 2P2,Chinese
Test B 2,1,4,Church-Wellesley Village,eZQV20xRXOuqR1Hej3nEqA,,1,13 Hayden Street,3,-79.3858528,43.6694376,M4Y 2P2,Chinese
Test C 3,1,4,Church-Wellesley Village,eZQV20xRXOuqR1Hej3nEqA,,1,13 Hayden Street,3,-79.3858528,43.6694375,M4Y 2P2,Chinese
Test D 4,1,4,Church-Wellesley Village,eZQV20xRXOuqR1Hej3nEqA,,1,13 Hayden Street,3,-79.3858528,43.6694374,M4Y 2P2,Chinese
Test E 4,1,4,Church-Wellesley Village,eZQV20xRXOuqR1Hej3nEqA,,1,13 Hayden Street,3,-79.3858528,43.6694373,M4Y 2P2,Chinese
Test F 4,1,4,Church-Wellesley Village,eZQV20xRXOuqR1Hej3nEqA,,1,13 Hayden Street,3,-79.3858528,43.6694372,M4Y 2P2,Chinese
Test B 2,1,4,Church-Wellesley Village,eZQV20xRXOuqR1Hej3nEqA,,1,13 Hayden Street,3,-79.3858528,43.6694376,M4Y 2P2,Japanese
Test C 3,1,4,Church-Wellesley Village,eZQV20xRXOuqR1Hej3nEqA,,1,13 Hayden Street,3,-79.3858528,43.6694375,M4Y 2P2,Japanese
Test D 4,1,4,Church-Wellesley Village,eZQV20xRXOuqR1Hej3nEqA,,1,13 Hayden Street,3,-79.3858528,43.6694374,M4Y 2P2,Japanese
Test E 4,1,4,Church-Wellesley Village,eZQV20xRXOuqR1Hej3nEqA,,1,13 Hayden Street,3,-79.3858528,43.6694373,M4Y 2P2,Japanese
Test F 4,1,4,Church-Wellesley Village,eZQV20xRXOuqR1Hej3nEqA,,1,13 Hayden Street,3,-79.3858528,43.6694372,M4Y 2P2,Japanese
Focaccia Italian Sandwiches,1,4,Church-Wellesley Village,eZQV20xRXOuqR1Hej3nEqA,,1,13 Hayden Street,3,-79.3858528,43.6694379,M4Y 2P2,Italian
Mare Pizzeria,1,4.5,Kensington Market,aYGqrw1lJHs8Hw0kHC5TVA,"""['Monday 10:0-22:0', 'Tuesday 10:0-22:0', 'Wednesday 10:0-22:0', 'Thursday 10:0-22:0', 'Friday 10:0-4:0', 'Saturday 10:0-4:0', 'Sunday 10:0-22:0']""",1,185 Baldwin Street,15,-79.4009673,43.6547607,M5T 1L8,Italian
Dante's Inferno Paninoteca,1,4.5,Wychwood,Dnq4w6ajMifZFFTIR5cGxw,"""['Tuesday 11:0-21:0', 'Wednesday 11:0-21:0', 'Thursday 11:0-21:0', 'Friday 11:0-21:0', 'Saturday 11:0-21:0']""",1,1151 Davenport Road,9,-79.4316635,43.6745606,M6H 2G4,Italian
Domino's Pizza,1,5,Etobicoke,UsFFaNUWG5u7f9rHpJBHRQ,"""['Monday 11:0-0:0', 'Tuesday 11:0-0:0', 'Wednesday 11:0-0:0', 'Thursday 11:0-0:0', 'Friday 11:0-1:0', 'Saturday 11:0-1:0', 'Sunday 11:0-0:0']""",1,4204 Dundas Street W,4,-79.5109773,43.6604605,M8X 1Y6,Italian
Weston Favourites,1,3.5,,wPxQQbwXfqnJEMirpwcPnw,"""['Monday 11:0-23:0', 'Tuesday 11:0-23:0', 'Wednesday 11:0-23:0', 'Thursday 11:0-23:0', 'Friday 11:0-0:0', 'Saturday 11:0-0:0', 'Sunday 12:0-22:0']""",1,1986 Weston Road,3,-79.51934931,43.7008781,M9N 1W8,Italian
Pizza La Rosa,1,4,,ixGb4NLfgD90wZHlw94rLw,"""['Monday 11:0-22:0', 'Tuesday 11:0-22:0', 'Wednesday 11:0-22:0', 'Thursday 11:0-23:0', 'Friday 11:0-23:0', 'Saturday 12:0-23:0', 'Sunday 17:0-22:0']""",1,"""2555 Victoria Park Avenue, Unit 19""",47,-79.3218593,43.7725733,M1T 1A3,Italian
Honey B Hives Restaurant,1,3.5,Scarborough,L_thK7r3K_h5M4tV7amEKQ,"""['Monday 0:0-0:0', 'Tuesday 0:0-0:0', 'Wednesday 0:0-0:0', 'Thursday 0:0-0:0', 'Friday 0:0-0:0', 'Saturday 0:0-0:0', 'Sunday 0:0-0:0']""",1,2816 Markham Road,118,-79.24791521,43.82298187,M1V 4C3,Italian
Cucinetta,1,3,,M7gB_MsmKwjSO8pk1rQ00w,"""['Monday 8:0-22:0', 'Tuesday 8:0-22:0', 'Wednesday 8:0-22:0', 'Thursday 8:0-22:0', 'Friday 8:0-22:0', 'Saturday 9:0-20:0', 'Sunday 9:0-20:0']""",1,4700 Keele Street,6,-79.5014336,43.7742392,M3J 1P3,Italian
Centro Trattoria & Formaggio,1,3.5,Corso Italia,EQ1cOH_mr5VyHGjhgz_vDA,"""['Monday 9:0-18:0', 'Tuesday 9:0-18:0', 'Wednesday 9:0-18:0', 'Thursday 9:0-18:0', 'Friday 9:0-18:0', 'Saturday 9:0-18:0']""",1,1224 St. Clair Avenue W,4,-79.444842,43.677714,M6E 1B4,Italian
Sorella Toronto,1,4.5,The Junction,GCYoo69k-vI-KFF3rsFuTQ,,1,2763 Dundas Street W,8,-79.46149387,43.66514426,M6P 1Y3,Italian
Amato Pizza,1,2,Leslieville,gQbfVuWEElYFqsS0qbUbpQ,"""['Monday 10:0-1:0', 'Tuesday 10:0-1:0', 'Wednesday 10:0-1:0', 'Thursday 10:0-1:0', 'Friday 10:0-2:0', 'Saturday 10:0-2:0', 'Sunday 10:0-1:0']""",1,1056 Queen Street E,7,-79.3374374,43.6618962,M4M 1K3,Italian
Arbia Cafe Eatery,1,4.5,Ryerson,mactLKv5GEgj6FdsYkdLVQ,"""['Monday 7:0-21:0', 'Tuesday 7:0-21:0', 'Wednesday 7:0-21:0', 'Thursday 7:0-21:0', 'Friday 7:0-20:0']""",0,113 Bond Street,12,-79.3785241,43.6571711,M5B 1Y2,Italian
Bitondo's Pizzeria,1,4,Little Italy,aIBvcOjkAURJJ-UH0G-s0g,"""['Monday 11:0-23:0', 'Tuesday 11:0-23:0', 'Wednesday 11:0-23:0', 'Thursday 11:0-23:0', 'Friday 11:0-23:0', 'Saturday 11:0-23:0', 'Sunday 11:0-23:0']""",1,11 Clinton Street,105,-79.4133282,43.6538683,M6J 2N7,Italian
Pastissima,1,4,,g1j8COaztNostGlxssCCVA,"""['Monday 9:0-19:0', 'Tuesday 9:0-19:0', 'Wednesday 9:0-19:0', 'Thursday 9:0-19:0', 'Friday 9:0-19:0', 'Saturday 10:0-18:0', 'Sunday 10:0-18:0']""",1,2633 Yonge Street,8,-79.3999542,43.7153388,M4P 2J6,Italian
Tre Mari Bakery,1,4.5,Corso Italia,02Ycww2etUAxorZb5gIM8Q,"""['Monday 7:0-20:0', 'Tuesday 7:0-20:0', 'Wednesday 7:0-20:0', 'Thursday 7:0-20:0', 'Friday 7:0-20:0', 'Saturday 7:0-21:0', 'Sunday 7:0-20:0']""",1,1311 Saint Clair Avenue W,50,-79.4487201,43.6765075,M6E 1C2,Italian
Nonna's Place,1,4,The Junction,6bttTDLU4j4GeG7QnvU84Q,,1,1419 Bloor St W,11,-79.447717,43.6572759,M6P 3L4,Italian
The Fresh Italian Eatery,1,4,Downtown Core,EY4xsGDe0euyusOfAb3Cwg,,1,42-109 McCaul Street,12,-79.39073145,43.6542189,M5T 2W7,Italian
Pastalicious,1,3,Liberty Village,B44Cx8VNrRlrgdfXHuaq-w,"""['Monday 11:0-19:0', 'Tuesday 11:0-19:0', 'Wednesday 11:0-19:0', 'Thursday 11:0-19:0', 'Friday 11:0-19:0', 'Saturday 11:0-18:0']""",0,"""171 E Liberty Village, Unit135""",7,-79.4192086,43.6383173,M6K 3P6,Italian
Primo Veal,1,4.5,Scarborough,4eP4sX4NXyDSdGBE8RAoJQ,"""['Monday 11:0-19:0', 'Tuesday 11:0-19:0', 'Wednesday 11:0-19:0', 'Thursday 11:0-19:0', 'Friday 11:0-19:0']""",1,3105 Sheppard Avenue E,38,-79.3176769,43.7765181,M1T 3J7,Italian
John's Classic Pizza,1,3.5,Little Italy,zZ5EM6ON8l7R32HwDabd2Q,,0,591 College St,6,-79.4135478,43.6552044,M6G 1B2,Italian
Amato Real Pizza,1,3,High Park,ZyS5VIWXTQoqMfuv3UgtcQ,"""['Monday 11:0-1:0', 'Tuesday 11:0-1:0', 'Wednesday 11:0-1:0', 'Thursday 11:0-1:0', 'Friday 11:0-2:0', 'Saturday 11:0-2:0', 'Sunday 11:0-1:0']""",1,2385 Dundas Street W,13,-79.4530819,43.6576103,M6P 1X2,Italian
Menchella's Gourmet Pizza,1,2.5,The Annex,u-hO4f4EK-riKNJbkxZW0Q,"""['Monday 11:0-23:0', 'Tuesday 11:0-23:0', 'Wednesday 11:0-23:0', 'Thursday 11:0-20:0', 'Friday 11:0-4:0', 'Saturday 11:0-4:0', 'Sunday 11:0-23:0']""",1,454 Bloor Street W,9,-79.4090963,43.6657121,M5S 1X8,Italian
Domino's Pizza,1,2,Brockton Village,JZB9Zjex7mlJNu7lyJ08Qw,,1,1671 Dundas Street West,5,-79.43773516,43.65010753,M6K 1V2,Italian
Riviera Bakery,1,3.5,Little Italy,eEKfOX6KtQmLgb8z-1VfUA,"""['Monday 8:0-20:0', 'Tuesday 8:0-20:0', 'Wednesday 8:0-20:0', 'Thursday 8:0-20:0', 'Friday 8:0-20:0', 'Saturday 8:0-20:0', 'Sunday 8:0-20:0']""",1,576 College Street,33,-79.4130997,43.6554884,M6G 1B3,Italian
Pizzaiolo,1,3,Yonge and St. Clair,1gL9mw6HRbetCb9vOBoPQw,,1,13 St Clair Ave W,23,-79.394666,43.6877499,M4V,Italian
Pizza Pizza,1,2.5,Yorkville,DitQU2Y-WONolisjxP-2nQ,"""['Monday 11:0-2:0', 'Tuesday 11:0-2:0', 'Wednesday 11:0-2:0', 'Thursday 11:0-3:0', 'Friday 11:0-3:0', 'Saturday 11:0-3:0', 'Sunday 11:0-2:0']""",1,826 Yonge Street,9,-79.3874048,43.6711886,M4W 2H1,Italian
Pizzaiolo,1,3,Entertainment District,UUlp5Pkpq7w5pOiX6esJ9Q,"""['Monday 10:0-23:0', 'Tuesday 10:0-23:0', 'Wednesday 10:0-23:0', 'Thursday 10:0-23:0', 'Friday 10:0-4:0', 'Saturday 11:0-4:0', 'Sunday 11:0-22:0']""",1,123 Spadina Avenue,9,-79.3954536,43.6471851,M5V 2K8,Italian
St Lawrence Pizza & Ice Cream,1,4,St. Lawrence,YcU8pVXAFxybe8aiOBQOcw,"""['Tuesday 8:0-18:0', 'Wednesday 8:0-18:0', 'Thursday 8:0-18:0', 'Friday 6:0-17:0', 'Saturday 6:0-17:0']""",1,93 Front Street E,10,-79.3717741,43.6490516,M5E 1C3,Italian
Corrado's,1,4.5,Entertainment District,Grr2wJ3nYD_7qUyespDglA,"""['Monday 11:0-21:0', 'Tuesday 11:0-21:0', 'Wednesday 11:0-21:0', 'Thursday 11:0-21:0', 'Friday 11:0-4:0', 'Saturday 12:0-4:0', 'Sunday 12:0-21:0']""",1,118 John Street,170,-79.39063707,43.64829396,M5V 2E2,Italian
Piazza Monte,1,3,Scarborough,sCpa9e3HOSPuOlZUIVTWKQ,"""['Monday 11:0-19:0', 'Tuesday 11:0-19:0', 'Wednesday 11:0-20:0', 'Thursday 11:0-20:0', 'Friday 11:0-20:0', 'Saturday 11:0-20:0']""",0,297 Port Union Road,5,-79.1407734,43.7894519,M1C 2L3,Italian
Domino's Pizza,1,3,Etobicoke,H9Ht6OgTMl3PZoX60OzCew,"""['Monday 11:0-0:0', 'Tuesday 11:0-0:0', 'Wednesday 11:0-0:0', 'Thursday 11:0-0:0', 'Friday 11:0-1:0', 'Saturday 11:0-1:0', 'Sunday 11:0-0:0']""",1,2811 Lake Shore Boulevard W,9,-79.5008951,43.601733,M8V 1H6,Italian
Baretto Caffe,1,5,,g6AFW-zY0wDvBl9U82g4zg,"""['Monday 7:30-18:0', 'Tuesday 7:30-18:0', 'Wednesday 7:30-18:0', 'Thursday 7:30-18:0', 'Friday 7:30-18:0', 'Saturday 8:30-17:0']""",1,1262 Don Mills Road,103,-79.3465271,43.7447684,M3B 2W7,Italian
Fresca Pizza & Pasta,1,4,,9LE2yGl23qxitNc9mkpbjA,"""['Monday 11:0-0:0', 'Tuesday 11:0-0:0', 'Wednesday 11:0-0:0', 'Thursday 11:0-1:0', 'Friday 11:0-3:0', 'Saturday 11:0-3:0', 'Sunday 13:0-23:0']""",1,302 College Street,63,-79.4017791,43.6576697,M5T 3M1,Italian
Pizza Hut,1,2.5,Bloor-West Village,6tFbsJuIarw6vawDOZ9GkA,"""['Monday 11:0-23:0', 'Tuesday 11:0-23:0', 'Wednesday 11:0-23:0', 'Thursday 11:0-23:0', 'Friday 11:0-1:0', 'Saturday 11:0-1:0', 'Sunday 12:0-23:0']""",1,2100 Bloor Street W,9,-79.4708935,43.6526178,M6S 4Y7,Italian
Pizza Pizza,1,1.5,Scarborough,E4wuEcTEmuq7kvgSbTDLFQ,"""['Monday 11:0-2:0', 'Tuesday 11:0-2:0', 'Wednesday 11:0-2:0', 'Thursday 11:0-3:0', 'Friday 11:0-3:0', 'Saturday 11:0-3:0', 'Sunday 11:0-2:0']""",1,"""2900 Warden Avenue, Unit 205 207""",6,-79.3184634,43.7983618,M1W 2S8,Italian
Pizza Pizza,1,3,Ryerson,obrbOqA5Pxita02b0rcGrg,"""['Monday 11:0-2:0', 'Tuesday 11:0-2:0', 'Wednesday 11:0-2:0', 'Thursday 11:0-3:0', 'Friday 11:0-3:0', 'Saturday 11:0-3:0', 'Sunday 11:0-2:0']""",1,346 Yonge Street,5,-79.3817333,43.6577514,M5B 1R8,Italian
Danforth Sandwich,1,4.5,The Danforth,Ct5bB61mRmHUdXhqL3rm0A,"""['Monday 9:0-19:0', 'Tuesday 9:0-19:0', 'Wednesday 9:0-21:0', 'Thursday 9:0-21:0', 'Friday 9:0-23:0', 'Saturday 9:0-23:0']""",1,2116 Danforth Avenue,5,-79.3118115,43.6859002,M4C 1K1,Italian
Pizza Pizza,1,2.5,Leslieville,XXXb0ANM2vU37VnAAZvlVQ,"""['Monday 11:0-2:0', 'Tuesday 11:0-2:0', 'Wednesday 11:0-2:0', 'Thursday 11:0-3:0', 'Friday 11:0-3:0', 'Saturday 11:0-3:0', 'Sunday 11:0-2:0']""",1,1252 Gerrard Street E,3,-79.32825208,43.67099523,M4L 1Y6,Italian
Calabria,1,2,,n_a-dQ0mzMxTvP7V8vvTWw,,0,2450 Sheppard Avenue E,4,-79.3240075,43.7750813,M2J 1X1,Italian
Uno Mustachio,1,3.5,St. Lawrence,RHcfJ-l69RbBE4viU0-jwQ,,1,"""St. Lawrence Market, 93 Front St E, Lower Level B34""",63,-79.3712387,43.6488408,M5E 1C2,Italian
Espresso Bakery & Deli,1,4,Etobicoke,r_A7uy6FUXxDDD0g7wXMSg,"""['Monday 9:0-19:0', 'Tuesday 9:0-19:0', 'Wednesday 9:0-19:0', 'Thursday 9:0-19:0', 'Friday 9:0-19:0', 'Saturday 10:0-17:0', 'Sunday 10:0-17:0']""",1,4980 Dundas Street W,5,-79.5304708,43.647337,M9A 1B7,Italian
San Francesco Foods - Clinton,1,4,Little Italy,NOKaVqvi4hI8RgGjFCFIAg,"""['Monday 9:0-21:0', 'Tuesday 9:0-21:0', 'Wednesday 9:0-21:0', 'Thursday 9:0-22:0', 'Friday 9:0-23:0', 'Saturday 9:0-23:0', 'Sunday 9:0-22:0']""",1,10 Clinton Street,42,-79.4133199,43.6537655,M6J 2N8,Italian
Pizza Pizza,1,2.5,Dufferin Grove,EDqCEAGXVGCH4FJXgqtjqg,"""['Monday 11:0-2:0', 'Tuesday 11:0-2:0', 'Wednesday 11:0-2:0', 'Thursday 11:0-3:0', 'Friday 11:0-3:0', 'Saturday 11:0-3:0', 'Sunday 11:0-2:0']""",1,979 Bloor Street W,7,-79.429089,43.661054,M6H 1L5,Italian
Pizza Pizza,1,2.5,Church-Wellesley Village,D9LMDxJTbMIP5drSgWp1SQ,"""['Monday 11:0-2:0', 'Tuesday 11:0-2:0', 'Wednesday 11:0-2:0', 'Thursday 11:0-3:0', 'Friday 11:0-3:0', 'Saturday 11:0-3:0', 'Sunday 11:0-2:0']""",1,471 Yonge Street,13,-79.3830445,43.6618689,M4Y 1A1,Italian
The Big Slice,1,3,Ryerson,SHtvOqudT3zlOdCnZjrXzQ,"""['Monday 9:0-5:0', 'Tuesday 9:0-5:0', 'Wednesday 9:0-5:0', 'Thursday 9:0-5:0', 'Friday 9:0-5:0', 'Saturday 9:0-5:0', 'Sunday 9:0-5:0']""",0,385 Yonge Street,78,-79.3818484,43.6588619,M5B 1S1,Italian
Mustachio Italian Eatery,1,4.5,Downtown Core,WzleXDgNBtwNo80gn7CgEg,"""['Monday 10:30-18:30', 'Tuesday 10:30-18:30', 'Wednesday 10:30-18:30', 'Thursday 10:30-18:30', 'Friday 10:30-18:30', 'Saturday 11:0-16:0']""",1,595 Bay St.,4,-79.3830938,43.6561838,M5G 1M6,Italian
Calabrese Pizza,1,3.5,Etobicoke,wY8EmrjhokXEgSeCOJwoqQ,"""['Monday 11:0-23:0', 'Tuesday 11:0-23:0', 'Wednesday 11:0-23:0', 'Thursday 11:0-0:0', 'Friday 11:0-1:0', 'Saturday 11:0-1:0', 'Sunday 14:0-22:0']""",1,3019 Lake Shore Boulevard W,18,-79.50851966,43.60003831,M8V 1K2,Italian
Pizza Pizza,1,2,Queen Street West,Idk-QTyUZq9w0ALh5cyvrw,"""['Monday 11:0-2:0', 'Tuesday 11:0-2:0', 'Wednesday 11:0-2:0', 'Thursday 11:0-3:0', 'Friday 11:0-3:0', 'Saturday 11:0-3:0', 'Sunday 11:0-2:0']""",1,228 Queen Street W,8,-79.3900762,43.6503226,M5V 1Z6,Italian
Diverso by Ferraro,2,4,,BesWd1a_bPC9-dH0biQJpw,"""['Monday 11:0-22:0', 'Tuesday 11:0-22:0', 'Wednesday 11:0-22:0', 'Thursday 11:0-22:0', 'Friday 11:0-23:0', 'Saturday 11:30-23:0']""",0,328 Dupont Street,12,-79.4089837,43.6745536,M5R,Italian
Lil Baci Taverna,2,3.5,Mount Pleasant and Davisville,yrZrnWdBR4pE21vcgv8KHw,"""['Monday 11:30-23:0', 'Tuesday 11:30-23:0', 'Wednesday 11:30-23:0', 'Thursday 11:30-23:0', 'Friday 11:30-23:0', 'Saturday 11:0-23:0', 'Sunday 11:0-23:0']""",1,2013 Yonge Street,74,-79.3971491,43.7011076,M4S 1Z9,Italian
Tommaso's Trattoria,2,4,Riverdale,x4mhAhgIVUd205iXMoyzCQ,,1,400 Eastern Ave,40,-79.3450015,43.6572764,M4M 1B9,Italian
Teatro Restaurant,2,2.5,Little Italy,Mr-r_r8qCnr9LMnazT0rhA,"""['Tuesday 18:0-2:0', 'Wednesday 18:0-2:0', 'Thursday 18:0-2:0', 'Friday 18:0-2:0', 'Saturday 18:0-2:0']""",0,505 College Street,9,-79.4100924,43.6559783,M6G 1A5,Italian
The Mad Italian Gelato Bar,2,3.5,Mount Pleasant and Davisville,ZUkUaGAbswsvFri2EfHFMQ,"""['Monday 9:0-23:0', 'Tuesday 9:0-23:0', 'Wednesday 9:0-23:0', 'Thursday 9:0-0:0', 'Friday 9:0-0:0', 'Saturday 9:0-0:0', 'Sunday 9:0-23:0']""",0,1581 Bayview Avenue,18,-79.3750554,43.7059907,M4G 3B7,Italian
Baldini Restaurant,2,3.5,Leslieville,wQMw6kc24uUQqqUGxe3Ztg,"""['Monday 11:30-15:0', 'Monday 17:0-22:0', 'Tuesday 11:30-15:0', 'Tuesday 17:0-22:0', 'Wednesday 11:30-15:0', 'Wednesday 17:0-22:0', 'Thursday 11:30-15:0', 'Thursday 17:0-22:0', 'Friday 11:30-15:0', 'Friday 17:0-22:30', 'Saturday 17:0-22:30', 'Sunday 17:0-22:0']""",1,1012 Queen Street E,41,-79.339032,43.661413,M4M 1K1,Italian
Bello Bio,2,4.5,Mount Pleasant and Davisville,Avh4vPVXkYPcHEbRs1ZdBQ,"""['Tuesday 11:30-21:0', 'Wednesday 11:30-21:0', 'Thursday 11:30-21:0', 'Friday 11:30-22:30', 'Saturday 11:30-22:30', 'Sunday 11:30-22:30']""",0,511 Mount Pleasant,10,-79.387492,43.7017624,M4S 2M4,Italian
Church Bistro,2,2.5,Church-Wellesley Village,uynbRIP4g85lp87xBJUaTg,"""['Monday 9:0-22:0', 'Tuesday 9:0-15:0', 'Wednesday 9:0-22:0', 'Thursday 9:0-22:0', 'Friday 9:0-22:0', 'Saturday 9:0-22:0', 'Sunday 9:0-17:0']""",1,555 Church Street,16,-79.3815104,43.667157,M4Y 2E2,Italian
Mirto Italian Restaurant & Bar,2,3,Downtown Core,tgZU8QAowa7V4Af6DV9UUg,"""['Monday 11:30-23:0', 'Tuesday 11:30-23:0', 'Wednesday 11:30-23:0', 'Thursday 11:30-23:0', 'Friday 11:30-23:0', 'Saturday 17:0-23:0']""",1,25 Toronto St,25,-79.3760778,43.650703,M5C 2R1,Italian
Porteree,2,3,Little Italy,YhZNYAnifMOmIddWh2YwcQ,"""['Monday 11:0-2:0', 'Tuesday 11:0-2:0', 'Wednesday 11:0-2:0', 'Thursday 11:0-2:0', 'Friday 11:0-2:0', 'Saturday 11:0-2:0', 'Sunday 11:0-2:0']""",0,583 College Street,3,-79.4132866,43.6552566,M6G 1B2,Italian
San Francesco Foods - Queen,2,3.5,Alexandra Park,MWe2RCV1PuH1qoMAELAqxA,"""['Monday 10:30-22:0', 'Tuesday 10:30-22:0', 'Wednesday 10:30-22:0', 'Thursday 10:30-23:0', 'Friday 10:30-0:0', 'Saturday 10:30-0:0', 'Sunday 11:0-21:0']""",1,609 Queen Street W,28,-79.4024223,43.6474976,M5V 2B7,Italian
Corrado's Authentic Italian Cuisine,2,4,East York,Vl7knG5rR45zT97JdkCmMQ,"""['Monday 11:0-20:0', 'Tuesday 11:0-20:0', 'Wednesday 11:0-20:0', 'Thursday 11:0-20:0', 'Friday 11:0-20:0', 'Saturday 16:0-21:0']""",0,471 Cosburn Avenue,5,-79.3339954,43.6928272,M4J 2N5,Italian
Vannis Restaurant,2,3,,KEyjG-6G4Dbo3p1Wmnxs4Q,"""['Monday 15:0-22:0', 'Tuesday 15:0-22:0', 'Wednesday 15:0-22:0', 'Thursday 15:0-22:0', 'Friday 15:0-23:0', 'Saturday 10:0-23:0', 'Sunday 10:0-22:0']""",1,672b St Clair Avenue W,33,-79.4255315,43.6819924,M6C 1B1,Italian
Trattoria Taverniti,2,4,Little Italy,bo4loBeLwkQqZ7HGrgxXRQ,"""['Monday 17:0-22:0', 'Tuesday 17:0-22:0', 'Wednesday 17:0-22:0', 'Thursday 12:0-22:0', 'Friday 12:0-23:0', 'Saturday 12:0-23:0', 'Sunday 17:0-22:0']""",1,591 College Street,60,-79.4136209,43.6552592,M6G 1B2,Italian
Rush Hour,2,4.5,,86W-L1l70wL-7n0lSfoY-Q,"""['Tuesday 17:30-22:0', 'Wednesday 17:30-22:0', 'Thursday 17:30-22:0', 'Friday 17:30-22:0', 'Saturday 17:30-22:0', 'Sunday 12:0-22:0']""",1,1438A Dufferin Street,36,-79.4403221,43.6711707,M6H 3L1,Italian
Invictus,2,1.5,Corso Italia,3MmNFU-6po5M4hKRnQZusw,"""['Tuesday 15:0-0:0', 'Wednesday 15:0-0:0', 'Thursday 15:0-0:0', 'Friday 15:0-0:0', 'Saturday 15:0-0:0', 'Sunday 15:0-0:0']""",0,1331 St Clair Avenue W,5,-79.44945921,43.67628259,M6E 1C2,Italian
Via Mercanti Food Shop,2,3,Kensington Market,DvXpWBz5_-hZQuvu-RnSwQ,"""['Monday 10:0-20:0', 'Tuesday 22:0-23:0', 'Wednesday 10:0-20:0', 'Thursday 10:0-20:0', 'Friday 10:0-21:0', 'Saturday 10:0-21:0', 'Sunday 10:0-20:0']""",1,209 Augusta Avenue,3,-79.4014786,43.6540622,M5T 2L4,Italian
Vivoli,2,3.5,Little Italy,yBGqf8l9NOM3vZFnlxcgzQ,"""['Monday 11:30-2:0', 'Tuesday 11:30-2:0', 'Wednesday 11:30-2:0', 'Thursday 11:30-2:0', 'Friday 11:30-2:0', 'Saturday 11:30-2:0', 'Sunday 11:30-2:0']""",1,665 College St,57,-79.4166798,43.6550863,M6G 1B7,Italian
Mangiacake Ristorante & Catering,2,3.5,Downtown Core,5D2lHX9z-psWbH5Dm0aZxQ,"""['Monday 9:0-17:0', 'Tuesday 9:0-17:0', 'Wednesday 9:0-17:0', 'Thursday 9:0-17:0', 'Friday 9:0-17:0', 'Saturday 11:0-17:0']""",0,160 McCaul Street,9,-79.3921693,43.655572,M5T 1W4,Italian
Simpatico Cibo e Vino,2,4.5,Yonge and Eglinton,NKoI09Z35Gwn5gdfi5HWNg,"""['Monday 16:15-22:0', 'Tuesday 16:15-22:0', 'Wednesday 16:15-22:0', 'Thursday 16:15-22:0', 'Friday 16:15-22:30', 'Saturday 16:15-22:30', 'Sunday 16:15-22:0']""",1,187 Heighbourne Road,5,-79.4071813,43.7044198,M5P 2J8,Italian
Gerrard Spaghetti & Pizza House,2,3,The Danforth,scDoMngWB0k37qgb7Ec-tQ,"""['Monday 12:0-21:0', 'Tuesday 12:0-21:0', 'Wednesday 12:0-21:0', 'Thursday 12:0-21:0', 'Friday 12:0-22:0', 'Saturday 13:0-22:0']""",1,1528 Danforth Avenue,16,-79.3248004,43.6833225,M4J 1N4,Italian
The Dylan Bar,2,3,The Danforth,ydj6cSmcOM_jVYJLkHzdOA,"""['Tuesday 17:0-0:0', 'Wednesday 17:0-0:0', 'Thursday 17:0-0:0', 'Friday 17:0-2:0', 'Saturday 17:0-2:0', 'Sunday 14:0-22:0']""",1,1276 Danforth Avenue,8,-79.33051672,43.68202801,M4J 1M6,Italian
Pizza Hut,2,3,Mount Pleasant and Davisville,nQFlHK1UxglOjhblGSgeaw,"""['Monday 11:0-23:0', 'Tuesday 11:0-23:0', 'Wednesday 11:0-23:0', 'Thursday 11:0-23:0', 'Friday 11:0-0:0', 'Saturday 11:0-0:0', 'Sunday 12:0-23:0']""",1,1386 Av Bayview,6,-79.3734904,43.7006501,M4G 3A1,Italian
Pizza Pizza,2,2.5,,zsgvTFimYf4stONAJOyePw,"""['Monday 11:0-2:0', 'Tuesday 11:0-2:0', 'Wednesday 11:0-2:0', 'Thursday 11:0-3:0', 'Friday 11:0-3:0', 'Saturday 11:0-3:0', 'Sunday 11:0-2:0']""",1,536 Saint Clair Avenue W,6,-79.4199253,43.6831351,M6C 1A4,Italian
Pizza Pizza,2,2.5,Bloordale Village,a9usBo16KZ-gxOJXdryNlQ,"""['Monday 11:0-2:0', 'Tuesday 11:0-2:0', 'Wednesday 11:0-2:0', 'Thursday 11:0-3:0', 'Friday 11:0-3:0', 'Saturday 11:0-3:0', 'Sunday 11:0-2:0']""",1,1193 Bloor Street W,8,-79.4393633,43.6589038,M6H 1N4,Italian
Bar Freddo Caffe,2,4.5,Etobicoke,40AZvMTzJ6jmjw9-H2H6hw,"""['Monday 10:0-21:0', 'Tuesday 10:0-21:0', 'Wednesday 10:0-21:0', 'Thursday 10:0-21:0', 'Friday 10:0-21:0', 'Saturday 9:30-21:0', 'Sunday 11:0-18:0']""",1,"""Sherway Gardens, 25 The W Mall""",6,-79.55765437,43.61278118,M9C 1B8,Italian
Capocaccia Trattoria,2,3.5,Yonge and St. Clair,KtSEqZbGV1WHgOgtSMEZFQ,"""['Monday 11:0-22:0', 'Tuesday 11:0-22:0', 'Wednesday 11:0-22:30', 'Thursday 11:0-23:0', 'Friday 11:0-23:0', 'Saturday 11:0-23:0', 'Sunday 11:0-22:0']""",1,1366 Yonge Street,37,-79.393189,43.6858784,M4T 3A7,Italian
Vecchio Frak,2,3.5,Bickford Park,gzOjboYojl0RfUDiETdGXA,,0,690 College Street,8,-79.4177747,43.6554188,M6G 1C1,Italian
Trattoria Bacio,2,3.5,Yorkville,IwMhD-JhfhEY_nk963h7Vw,"""['Tuesday 8:0-17:0', 'Wednesday 8:0-17:0', 'Thursday 8:0-18:0', 'Friday 8:0-18:0', 'Saturday 8:0-18:0', 'Sunday 10:0-17:0']""",1,95 Cumberland Street,11,-79.3906913,43.6703318,M5R 2A7,Italian
Sud Forno,2,4,West Queen West,KcIalceIg6PSPONvLlI4-w,"""['Monday 8:0-22:0', 'Tuesday 8:0-22:0', 'Wednesday 8:0-22:0', 'Thursday 8:0-22:0', 'Friday 8:0-22:0', 'Saturday 8:0-22:0', 'Sunday 8:0-22:0']""",1,716 Queen Street W,90,-79.40900372,43.646303,M6J 1E9,Italian
Tosto Quickfire Pizza Pasta,2,3.5,Discovery District,n9BrA1zIwlbiP1hLAc24jg,"""['Monday 11:0-22:0', 'Tuesday 11:0-22:0', 'Wednesday 11:0-22:0', 'Thursday 11:0-22:0', 'Friday 11:0-23:0', 'Saturday 11:0-23:0', 'Sunday 11:0-22:0']""",1,"""800 Bay Street, Unit 101""",49,-79.3864087,43.661136,M5S 3A9,Italian
Sfizio Pizzeria & Wine Bar,2,4,,gju80t2hbwvCx6-JExZF3g,"""['Monday 11:0-22:0', 'Tuesday 11:0-22:0', 'Wednesday 11:0-22:0', 'Thursday 11:0-22:0', 'Friday 11:0-22:0', 'Saturday 14:0-23:0', 'Sunday 11:0-22:0']""",1,401 Bloor Street E,35,-79.3774052,43.6721292,M4W 1H7,Italian
Magic Oven,2,3,The Junction,eQNApV0-OpYJec3y1OoBvg,"""['Monday 11:0-22:0', 'Tuesday 11:0-22:0', 'Wednesday 11:0-22:0', 'Thursday 11:0-23:0', 'Friday 11:0-23:0', 'Saturday 11:0-23:0', 'Sunday 11:0-23:0']""",0,347 Keele Street,43,-79.4639484,43.6647484,M6P 2K6,Italian
7 Numbers Danforth,2,3.5,Riverdale,S2eGygYWQB2yyb3-neKTlw,"""['Tuesday 17:0-23:0', 'Wednesday 17:0-23:0', 'Thursday 17:0-23:0', 'Friday 17:0-23:0', 'Saturday 17:0-23:0', 'Sunday 17:0-22:0']""",1,307 Danforth Avenue E,75,-79.3538463,43.6769587,M4K 1N7,Italian
Campo,2,4.5,,L8W83-wPFLMs457cAu60Eg,"""['Wednesday 12:0-14:0', 'Thursday 12:0-14:0', 'Friday 12:0-14:0', 'Saturday 17:30-22:0', 'Sunday 11:0-14:0']""",1,244 Jane Street,25,-79.48695902,43.65511797,M6S 3Y8,Italian
Negroni,2,4,Palmerston,XxXJat55Oep1BMzQ9yJJhQ,"""['Monday 11:0-2:0', 'Tuesday 11:0-2:0', 'Wednesday 11:0-2:0', 'Thursday 11:0-2:0', 'Friday 11:0-2:0', 'Saturday 11:0-2:0', 'Sunday 11:0-2:0']""",0,492 College Street,37,-79.4097497,43.6562802,M6G 1A4,Italian
On A Bun,2,3.5,Niagara,rRoJ2PbxzjCPFHq0jqzXkA,"""['Monday 11:30-21:0', 'Tuesday 11:30-21:0', 'Wednesday 11:30-21:0', 'Thursday 11:30-21:0', 'Friday 11:30-21:0', 'Saturday 11:30-21:0', 'Sunday 0:0-20:0']""",1,A 841 Queen St W,11,-79.41006742,43.64590058,M6J 1G4,Italian
Prego Restaurant,2,4,Etobicoke,kqIjHVFbhg-mqRGRhpRKpg,,1,753 The Queensway,5,-79.5036015,43.626083,M8Z 1M8,Italian
Locale Mercatto,2,3,Financial District,_AVXgkX4DiNQAQj_3tNhFQ,"""['Monday 11:30-23:0', 'Tuesday 11:30-23:0', 'Wednesday 11:30-23:0', 'Thursday 11:30-23:0', 'Friday 11:30-23:0', 'Saturday 17:0-23:0']""",1,330 Bay Street,66,-79.3812091,43.6500336,M5H 2S8,Italian
Focaccia Restaurant,2,3.5,Church-Wellesley Village,1kVicFRGjgUrB6IezlTTdw,"""['Monday 11:30-21:0', 'Tuesday 11:30-14:30', 'Tuesday 17:0-23:0', 'Wednesday 11:30-14:30', 'Wednesday 17:0-23:0', 'Thursday 11:30-14:30', 'Thursday 17:0-23:0', 'Friday 11:30-14:30', 'Friday 17:0-23:0', 'Saturday 17:0-23:0']""",1,17 Hayden Street,24,-79.3858616,43.6694964,M4Y 2P2,Italian
Roma1090,2,3.5,Dovercourt,C7bK6Sd0LcvH7SOAjQu3LA,"""['Monday 15:0-0:0', 'Tuesday 15:0-0:0', 'Wednesday 15:0-0:0', 'Thursday 11:0-1:0', 'Friday 11:0-1:0', 'Saturday 11:0-1:0', 'Sunday 11:0-1:0']""",1,1090 Bloor Street W,21,-79.4341132,43.6601487,M6H,Italian
Pi Co,2,4,Yorkville,#NAME?,"""['Monday 11:0-21:0', 'Tuesday 11:0-21:0', 'Wednesday 11:0-21:0', 'Thursday 11:0-0:0', 'Friday 11:0-0:0', 'Saturday 11:0-0:0', 'Sunday 11:0-0:0', 'Sunday 11:0-21:0']""",1,1200 Bay Street,30,-79.3898095,43.6700032,M5R 2A5,Italian
Napoli Centrale,2,4.5,The Annex,ohEGwJtSqrVd2SD-FKKrUQ,"""['Monday 17:0-22:0', 'Tuesday 17:0-22:0', 'Wednesday 17:0-22:0', 'Thursday 17:0-22:0', 'Friday 17:0-23:0', 'Saturday 17:0-23:0', 'Sunday 17:0-22:0']""",1,964 Bathurst Street,33,-79.4129745,43.6695182,M5R 3G5,Italian
Il Fornello,2,2.5,The Beach,fmgGNZyZfeCU8fug5LnpjQ,,0,2024 Queen Street E,16,-79.2987658,43.6705682,M4L 1J4,Italian
Spoon And Fork Plus,2,3.5,,3k9treY8PmsZ42bKmuICgA,"""['Monday 11:30-22:0', 'Tuesday 11:30-22:0', 'Wednesday 11:30-22:0', 'Thursday 11:30-22:0', 'Friday 11:30-23:0', 'Saturday 11:30-23:0', 'Sunday 11:30-22:0']""",1,"""865 York Mills, Unit 9""",110,-79.3494929,43.7541711,M3B 1Y6,Italian
Joe Maggiano's Italian Eatery & Bar,2,2,,7tUmASg6tOmh_DcIz2R7SQ,"""['Monday 11:0-23:0', 'Tuesday 11:0-23:0', 'Wednesday 11:0-23:0', 'Thursday 11:0-0:0', 'Friday 11:0-0:0', 'Saturday 11:0-0:0', 'Sunday 11:0-22:0']""",0,2450 Sheppard Avenue E,9,-79.3240124,43.7750926,M2J 1X1,Italian
Bella Vista Trattoria & Wine Bar,2,3.5,Bickford Park,rkssUq0wCU51zqHS5VZ7bg,"""['Tuesday 16:0-0:0', 'Wednesday 16:0-0:0', 'Thursday 16:0-0:0', 'Friday 16:0-0:0', 'Saturday 16:0-0:0', 'Sunday 16:0-0:0']""",1,660 College Street,8,-79.4164775,43.6551859,M6G 1B8,Italian
Cantine Bar & Grill,2,3.5,The Annex,6Toez65egZSMV1iohQWGIQ,"""['Monday 11:30-21:0', 'Tuesday 11:30-21:0', 'Wednesday 11:30-21:0', 'Thursday 11:30-21:30', 'Friday 11:30-22:0', 'Saturday 10:0-22:0', 'Sunday 10:0-21:0']""",0,138 Avenue Road,26,-79.3965417,43.6744252,M5R 2H6,Italian
Piola,2,3.5,West Queen West,cVlW0omVTRaVJqnT-OBBsQ,"""['Tuesday 12:0-23:0', 'Wednesday 12:0-23:0', 'Thursday 12:0-23:0', 'Friday 12:0-1:0', 'Saturday 12:0-1:0', 'Sunday 12:0-23:0']""",0,1165 Queen Street W,69,-79.4257699,43.6426372,M6J 1J6,Italian
Vino Rosso Bar & Restaurant,2,2,Discovery District,ElFjivhz41XfFiOogtTCvg,"""['Monday 11:0-15:0', 'Monday 17:0-22:0', 'Tuesday 11:0-15:0', 'Tuesday 17:0-22:0', 'Wednesday 11:0-15:0', 'Wednesday 17:0-22:0', 'Thursday 11:0-15:0', 'Thursday 17:0-22:0', 'Friday 11:0-15:0', 'Friday 17:0-22:0', 'Saturday 17:0-22:0', 'Sunday 10:0-15:0', 'Sunday 17:0-22:0']""",1,995 Bay Street,14,-79.3874872,43.665223,M5S 3C4,Italian
Mangia & Bevi,2,4,Corktown,tWdp26XQEJqJGnRmFVJQxA,"""['Monday 10:0-22:0', 'Tuesday 10:0-22:0', 'Wednesday 10:0-22:0', 'Thursday 10:0-22:0', 'Friday 10:0-22:0', 'Saturday 12:0-15:0', 'Sunday 12:0-15:0']""",1,260 King Street E,126,-79.36630726,43.6522239,M5R 4L5,Italian
Pizza e Pazzi,2,3.5,Corso Italia,ERnG-1q3igX3VSgm5uLZ6A,"""['Monday 17:0-22:0', 'Tuesday 17:0-22:0', 'Wednesday 12:0-22:0', 'Thursday 12:0-22:0', 'Friday 17:0-23:0', 'Saturday 12:0-23:0', 'Sunday 12:0-22:0']""",1,1182 Saint Clair Avenue W,47,-79.4438931,43.6780154,M6E 1B4,Italian
Casa Di Giorgios,2,4,Upper Beach,Huo1lJmVkdqvFuLtA74Nhw,"""['Monday 16:0-22:0', 'Tuesday 16:0-22:0', 'Wednesday 16:0-22:0', 'Thursday 16:0-22:0', 'Friday 16:0-23:0', 'Saturday 16:0-22:0', 'Sunday 16:0-22:0']""",1,1646 Queen St E,48,-79.3152179,43.66684,M4L 1G3,Italian
Pastizza,2,4,St. Lawrence,cSSgeQQOz2modfT7zTHJHQ,"""['Monday 11:30-22:0', 'Tuesday 11:30-22:0', 'Wednesday 11:30-22:0', 'Thursday 11:30-22:0', 'Friday 11:30-0:0', 'Saturday 11:30-0:0', 'Sunday 11:30-22:0']""",0,118 The Esplanade,52,-79.3719852,43.6481186,M5E 1A9,Italian
Marcello's Pizzeria,2,4,,a4MVM9E9022sYFrrYWy9DQ,"""['Monday 11:30-22:0', 'Tuesday 11:30-22:0', 'Wednesday 11:30-22:0', 'Thursday 11:30-22:0', 'Friday 11:30-22:30', 'Saturday 11:30-22:30', 'Sunday 13:0-22:0']""",1,1163 Saint Clair Avenue W,74,-79.4425691,43.6778954,M6E 1B2,Italian
Pizzeria Libretto Danforth,2,4,The Danforth,OIdOJaNS8M624F58XGV3PQ,"""['Monday 11:30-22:0', 'Tuesday 11:30-22:0', 'Wednesday 11:30-22:0', 'Thursday 11:30-22:0', 'Friday 11:30-23:0', 'Saturday 11:30-23:0', 'Sunday 11:30-22:0']""",1,550 Danforth Avenue,238,-79.3475845,43.6785541,M4K 1P7,Italian
Il Gatto Nero,2,3,Bickford Park,UBW3Asjmih0nARbBNK3oEA,"""['Monday 8:0-1:0', 'Tuesday 8:0-1:0', 'Wednesday 8:0-1:0', 'Thursday 8:0-1:0', 'Friday 8:0-1:0', 'Saturday 8:0-1:0', 'Sunday 8:0-1:0']""",1,720 College St,42,-79.4188956,43.655254,M6G 1C3,Italian
Porticello Restaurant,2,3.5,Harbourfront,VbFGfmrl0VtXc10vKpj5aw,"""['Monday 11:0-15:0', 'Monday 11:30-15:0', 'Monday 17:0-23:0', 'Tuesday 11:30-15:0', 'Tuesday 17:0-23:0', 'Wednesday 11:30-15:0', 'Wednesday 17:0-23:0', 'Thursday 11:30-15:0', 'Thursday 17:0-23:0', 'Friday 11:30-15:0', 'Friday 17:0-23:0', 'Saturday 17:0-23:30', 'Sunday 11:30-22:0']""",0,370 Queens Quay W,3,-79.38979,43.6387666,M5V 3J3,Italian
Cafe Cinquecento,2,3,Niagara,Zuwzb89m5JfOGyPgknSbCQ,,0,791 King Street W,10,-79.4067972,43.6429425,M5V 1N4,Italian
Noodles & Company,2,3,Financial District,tuikCn2ljRGN5QHZBnjoqA,"""['Monday 6:30-19:0', 'Tuesday 6:30-19:0', 'Wednesday 6:30-19:0', 'Thursday 6:30-19:0', 'Friday 6:30-19:0']""",1,66 Wellington Street W,27,-79.3811225,43.6473609,M5K 1A1,Italian
Il Fornello,2,3,Entertainment District,98V9R-7YT20KmcmJyMiJmg,"""['Monday 11:30-22:0', 'Tuesday 11:30-22:0', 'Wednesday 11:30-22:0', 'Thursday 11:30-22:0', 'Friday 11:30-22:0', 'Saturday 16:0-23:0']""",1,214 King St W,65,-79.386774,43.6474299,M5H 3S6,Italian
Kalendar,2,3.5,Palmerston,C3PVq7UpeHd6nz1_e-AtkA,"""['Monday 11:30-23:0', 'Tuesday 11:30-23:0', 'Wednesday 11:30-23:0', 'Thursday 11:30-0:0', 'Friday 11:30-2:0', 'Saturday 10:30-2:0', 'Sunday 10:30-23:0']""",1,546 College Street,138,-79.411741,43.6559194,M6G 1B1,Italian
Agio,2,4.5,,a-Mo7Ipu_c5y21mmg0-F7g,"""['Monday 11:30-23:30', 'Tuesday 11:30-23:30', 'Wednesday 11:30-23:30', 'Thursday 11:30-23:30', 'Friday 11:30-23:30', 'Saturday 11:30-23:30', 'Sunday 11:30-23:30']""",1,1351 St Clair Avenue W,95,-79.4506221,43.6761799,M6E 1C5,Italian
Appetite,2,3,Riverdale,dPWgvF0SjDRTd2r3hYDTWQ,"""['Monday 11:0-19:0', 'Tuesday 11:0-20:0', 'Wednesday 11:0-20:0', 'Thursday 11:0-20:0', 'Friday 11:0-20:0', 'Saturday 11:0-17:0']""",0,722 Queen Street E,8,-79.3493884,43.6590524,M4M 1H2,Italian
Amicos Pizza Ristorante,2,3,Parkdale,Kdt5XrqARBMIH694fgnyuA,"""['Monday 16:0-4:0', 'Wednesday 16:0-4:0', 'Thursday 16:0-4:0', 'Friday 16:0-4:0', 'Saturday 16:0-4:0', 'Sunday 16:0-4:0']""",1,1648 Queen Street W,26,-79.443082,43.639388,M6R 1B2,Italian
East Side Mario's,2,1.5,,LzYy9DdprXyI2zXNSP267g,"""['Monday 11:0-23:0', 'Tuesday 11:0-23:0', 'Wednesday 11:0-23:0', 'Thursday 11:0-0:0', 'Friday 11:0-0:0', 'Saturday 11:0-0:0', 'Sunday 11:0-0:0']""",1,2171 Steeles Ave W,29,-79.4761664,43.7856129,M3J 3N2,Italian
Luce Restaurant,2,4,Niagara,o7io7ITyHfjXOpxIktL0Bg,"""['Tuesday 16:0-22:0', 'Wednesday 16:0-22:0', 'Thursday 16:0-23:0', 'Friday 11:30-0:0', 'Saturday 11:0-0:0', 'Sunday 11:0-22:0']""",0,791 King Street W,24,-79.4068177,43.6430561,M5V 1N4,Italian
Vivid Pizzeria & Restaurant,2,4,,yhUmRy7x5Zw1XXVhxQ2zQQ,,0,1067 St. Clair Ave W,7,-79.4392235,43.6786591,M6H 3B1,Italian
Ciccio Sanwiccio,2,4,,V4Ml-Urzen74dieQD-QeKw,,1,3220 Yonge Street,17,-79.4035455,43.7287692,M4N 2L2,Italian
Cabbagetown Brew,2,4.5,Cabbagetown,nPBZaN5ttrArS6tZwdjN7Q,"""['Monday 9:0-21:0', 'Tuesday 9:0-21:0', 'Wednesday 9:0-21:0', 'Thursday 9:0-21:0', 'Friday 9:0-21:0', 'Saturday 9:0-18:0', 'Sunday 9:0-18:0']""",1,552 Parliament Street,10,-79.3691778,43.6668442,M4X 1P6,Italian
Grano Restaurant,2,3.5,Mount Pleasant and Davisville,N20Z6CmL1ZnCHYd2aojRyQ,"""['Monday 9:0-21:30', 'Tuesday 9:0-21:30', 'Wednesday 9:0-21:30', 'Thursday 9:0-21:30', 'Friday 9:0-21:30', 'Saturday 9:0-21:30']""",1,2035 Yonge St,27,-79.3970147,43.7017236,M4S 2A2,Italian
Chefydrew's International Cuisine,2,4,,A8yIKHSI5LFYZ6_H8dZBcg,,0,255 Dundas Street E,7,-79.3724253,43.658124,M5A 1Z8,Italian
G For Gelato and Pizza Bar,2,4,Corktown,84ezTxVxTCmI65_UeYRJcA,"""['Monday 8:0-21:0', 'Tuesday 8:0-21:0', 'Wednesday 8:0-21:0', 'Thursday 8:0-21:0', 'Friday 8:0-23:0', 'Saturday 8:0-23:0', 'Sunday 9:0-22:0']""",1,75 Jarvis Street,143,-79.37186911,43.6513375,M5C 2H2,Italian
Modo Mio Italian Bistro,2,4.5,,NvFpFlu-aHzUOtaA0yc-YA,"""['Monday 11:0-22:0', 'Tuesday 11:0-22:0', 'Wednesday 11:0-22:0', 'Thursday 11:0-22:0', 'Friday 11:0-22:30', 'Saturday 12:0-22:30', 'Sunday 12:0-22:0']""",1,1923c Avenue Road,17,-79.4193442,43.73371344,M5M 4A2,Italian
L-eat Express Cafe,2,3,,jS6i--1iVudrIZNhKrG6-Q,"""['Monday 7:30-17:0', 'Tuesday 7:30-17:0', 'Wednesday 7:30-17:0', 'Thursday 7:30-17:0', 'Friday 7:30-17:0']""",0,410 Adelaide St W,17,-79.3967258,43.6466453,M5V 1S7,Italian
Jz's Pizza,2,4,Entertainment District,YvrylyuWgbP90RgMqZQVnQ,"""['Monday 11:0-23:0', 'Tuesday 11:0-23:0', 'Wednesday 11:0-23:0', 'Thursday 11:0-23:0', 'Friday 11:0-1:0', 'Saturday 11:0-1:0', 'Sunday 11:0-23:0']""",1,232 Wellington Street W,31,-79.3897039,43.64527676,M5V 3W1,Italian
SCADDABUSH Italian Kitchen & Bar,2,3.5,Downtown Core,9Eghhu_LzEJgDKNgisf3rg,"""['Monday 11:0-1:0', 'Tuesday 11:0-1:0', 'Wednesday 11:0-1:0', 'Thursday 11:0-2:0', 'Friday 11:0-2:0', 'Saturday 11:0-2:0', 'Sunday 11:0-1:0']""",1,"""382 Yonge Street, Unit #7""",294,-79.3824692,43.6592789,M5B 1S8,Italian
Little Anthony's,2,3.5,Downtown Core,UH6mET5JYZR6yPDVpTG9Og,"""['Monday 11:30-22:0', 'Tuesday 11:30-22:0', 'Wednesday 11:30-22:0', 'Thursday 11:30-22:0', 'Friday 11:30-22:0', 'Saturday 17:0-22:30']""",1,121 Richmond Street W,77,-79.3840733,43.6509167,M5H 3K6,Italian
Levetto,2,4,Dufferin Grove,iag4htR8F7FmE9zpz7_GMw,"""['Monday 11:0-22:0', 'Tuesday 11:0-22:0', 'Wednesday 11:0-22:0', 'Thursday 11:0-22:0', 'Friday 11:0-23:0', 'Saturday 11:0-23:0', 'Sunday 11:0-22:0']""",1,940 College Street,42,-79.4265904,43.6536812,M6H 1A5,Italian
Fusaro's Kitchen,2,4,Entertainment District,sKrt4CMGyG8YAjxVkk4hPQ,"""['Monday 9:0-21:0', 'Tuesday 9:0-21:0', 'Wednesday 9:0-21:0', 'Thursday 9:0-21:0', 'Friday 9:0-21:0', 'Saturday 10:0-16:0']""",1,147 Spadina Avenue,85,-79.3956287,43.6480684,M5V 2L7,Italian
Cinquelire,2,3.5,,VIP5_HoBm98wcJPwz0lZjg,"""['Monday 11:0-22:0', 'Tuesday 11:0-22:0', 'Wednesday 11:0-22:0', 'Thursday 11:0-23:0', 'Friday 11:0-23:0', 'Saturday 11:0-23:0', 'Sunday 11:0-22:0']""",1,2910 Dufferin Street,18,-79.4536759,43.7086252,M6B 3S8,Italian
Quattro e Quattr8,2,3.5,Mount Pleasant and Davisville,zCqpHq-eDSRqXn9VBtoVcQ,,1,2059 Yonge Street,11,-79.3971311,43.702178,M4S 2A2,Italian
La Stella Restaurant and Bar,2,3,Yonge and St. Clair,q0Yj68PIi5ebK5Foycs-HA,"""['Monday 11:0-21:0', 'Tuesday 11:0-21:0', 'Wednesday 11:0-21:0', 'Thursday 11:0-21:0', 'Friday 11:0-21:0']""",0,55 St. Clair Avenue W,4,-79.4000493,43.6864123,M4V 2Y7,Italian
Big Slice Restaurant,2,3,,1Z9rGyR3Ld2mtnOTE4pNcg,,1,1154 St Clair Ave W,41,-79.4424888,43.6782503,M6E 1B3,Italian
San Francesco Foods,2,3,Discovery District,0r9NuzpFE6l0hwVAJDnhVg,"""['Monday 10:30-21:0', 'Tuesday 10:30-21:0', 'Wednesday 10:30-21:0', 'Thursday 10:30-21:0', 'Friday 10:30-21:0', 'Saturday 10:30-21:0', 'Sunday 11:0-21:0']""",1,736 Bay Street,12,-79.3855275,43.6593919,M5G 2M4,Italian
Micro Time Cafe,2,3,Church-Wellesley Village,bNO_c8Gka2Rkwaub3qVAMQ,"""['Monday 8:0-22:0', 'Tuesday 12:0-22:0', 'Wednesday 12:0-22:0', 'Thursday 12:0-22:0', 'Friday 12:0-22:0', 'Saturday 12:0-22:0', 'Sunday 12:0-20:0']""",1,25 Wellesley St E,20,-79.383316,43.665211,M4Y 3B2,Italian
The Original San Francesco,2,3,,7e5VezwFWmNyv5RvuHyFrQ,"""['Monday 11:0-21:0', 'Tuesday 11:0-21:0', 'Wednesday 11:0-21:0', 'Thursday 11:0-21:0', 'Friday 11:0-21:0', 'Saturday 11:0-21:0', 'Sunday 11:0-21:0']""",1,30 Laird Drive,8,-79.3609067,43.7038766,M4G 3T2,Italian
Francesca Italian Bakery & Delicatessen,2,4,Scarborough,mUUTJY9_BqmAYxypHiqWrw,"""['Monday 7:0-19:0', 'Tuesday 7:0-19:0', 'Wednesday 7:0-19:0', 'Thursday 7:0-19:0', 'Friday 7:0-19:0', 'Saturday 7:0-18:0', 'Sunday 7:0-17:0']""",1,2 Invergordon Avenue,69,-79.2563833,43.787596,M1S 2Y8,Italian
Factory Girl,2,3.5,Riverdale,aadG1TzULt-ezzUJZUSSJQ,"""['Monday 11:0-1:0', 'Tuesday 11:0-1:0', 'Wednesday 11:0-1:0', 'Thursday 11:0-2:0', 'Friday 11:0-2:0', 'Saturday 11:0-2:0', 'Sunday 11:0-1:0']""",1,193 Danforth Avenue,72,-79.3562023,43.676581,M4K 1N2,Italian
Grazie Ristorante,2,4,Mount Pleasant and Davisville,wNXw53wmePcf_V3rF18LUg,"""['Monday 12:0-22:0', 'Tuesday 12:0-23:0', 'Wednesday 12:0-23:0', 'Thursday 12:0-23:0', 'Friday 12:0-0:0', 'Saturday 12:0-0:0', 'Sunday 12:0-23:0']""",1,2373 Yonge Street,268,-79.398862,43.7093922,M4P 2C8,Italian
Red Sauce,2,4,Palmerston,GjEbrETDJf0KPHQWvWkoqA,"""['Monday 11:0-2:0', 'Tuesday 11:0-2:0', 'Wednesday 11:0-2:0', 'Thursday 11:0-2:0', 'Friday 11:0-2:0', 'Saturday 11:0-2:0', 'Sunday 11:0-2:0']""",0,50c Clinton Street,13,-79.4141069,43.6555203,M6G 2Y3,Italian
The Mad Italian,2,4.5,Greektown,Ik3CEeFyMFDnqrhc30NubQ,"""['Monday 10:0-22:0', 'Tuesday 10:0-23:0', 'Wednesday 10:0-23:0', 'Thursday 10:0-0:0', 'Friday 10:0-0:0', 'Saturday 10:0-0:0', 'Sunday 10:0-22:0']""",0,565 Danforth Avenue,3,-79.346957,43.678381,M4K 1P9,Italian
Alio Restaurant & Wine Bar,2,3,Discovery District,0pHBqJT0mzu9bO6D33Byug,"""['Monday 23:30-1:30', 'Tuesday 23:30-1:30', 'Wednesday 23:30-1:30', 'Thursday 23:30-1:30', 'Friday 23:30-1:30', 'Saturday 19:0-1:0']""",1,108 Dundas Street W,7,-79.3840939,43.6556629,M5G 1C3,Italian
Capitol Trattoria Pizzeria,2,2.5,Little Italy,k9AaulyfonmUlkmI3uMiQQ,"""['Monday 11:0-1:0', 'Tuesday 11:0-1:0', 'Wednesday 11:0-1:0', 'Thursday 11:0-1:0', 'Friday 11:0-2:0', 'Saturday 11:0-2:0', 'Sunday 11:0-1:0']""",1,597 College Street,21,-79.4139538,43.6551928,M6G 1B5,Italian
Novecento,2,4.5,Corso Italia,6a7zecn8W8r9dDWwQVb6aA,,0,1228 Saint Clair Avenue W,7,-79.4451386,43.6775605,M6E 1B7,Italian
Mayday Malone's Pub & Ristorante,2,3.5,Seaton Village,wC-6zUGK5Cx3qW8IjvJxpw,"""['Monday 11:0-2:0', 'Tuesday 11:0-2:0', 'Wednesday 11:0-2:0', 'Thursday 11:0-2:0', 'Friday 11:0-2:0', 'Saturday 11:0-2:0', 'Sunday 11:0-2:0']""",1,1078 Bathurst Street,10,-79.4143711,43.6724821,M5R 3G9,Italian
Viccino Pizzeria,2,3.5,The Beach,Qf7x_9ATlcm-thjdxOWJ4A,"""['Monday 12:0-22:0', 'Tuesday 12:0-22:0', 'Wednesday 12:0-22:0', 'Thursday 12:0-22:0', 'Friday 12:0-23:0', 'Saturday 12:0-23:0']""",0,1923 Queen St E,13,-79.3039884,43.6691396,M4L 1H3,Italian
Langolino Wine Bar & Grill,2,3.5,Palmerston,k5azd7T8eqESrOP9TkBjOw,"""['Monday 11:0-2:0', 'Tuesday 11:0-2:0', 'Wednesday 11:0-2:0', 'Thursday 11:0-2:0', 'Friday 11:0-2:0', 'Saturday 11:0-2:0', 'Sunday 11:0-2:0']""",0,50 Clinton St,8,-79.4141069,43.6555203,M6G 2Y3,Italian
Lyrics Music Bar and Grill,2,2.5,Yorkville,b_yZrM3rVQVlifEg5naDpQ,"""['Tuesday 11:30-0:0', 'Wednesday 11:30-0:0', 'Thursday 11:30-0:0', 'Friday 11:30-2:0', 'Saturday 18:0-2:0']""",0,50 Cumberland Street,3,-79.3890456,43.6707363,M4W,Italian
Angolino,2,4.5,The Junction,z4_Aut97zxHEen9LXYJ9Ig,"""['Tuesday 17:0-22:0', 'Wednesday 17:0-22:0', 'Thursday 17:0-22:0', 'Friday 17:0-22:0', 'Saturday 17:0-22:0', 'Sunday 17:0-22:0']""",1,1595 Dupont Street,9,-79.4542337,43.6650201,M6P 3S8,Italian
Pizzeria Defina,2,4,High Park,9xdVIIzHp12Zrox5aFaaHA,"""['Monday 12:0-22:0', 'Tuesday 12:0-22:0', 'Wednesday 12:0-22:0', 'Thursday 12:0-22:0', 'Friday 12:0-23:0', 'Saturday 12:0-23:0', 'Sunday 12:0-22:0']""",1,321 Roncesvalles Ave,74,-79.4499432,43.6486938,M6R 2M6,Italian
Ferro Bar & Cafe,2,3.5,Wychwood,l8SNag-Ii0YUeSGHkA3Vhw,"""['Monday 11:0-22:0', 'Tuesday 11:0-22:0', 'Wednesday 11:0-22:0', 'Thursday 11:0-23:0', 'Friday 11:0-23:0', 'Saturday 11:0-23:0', 'Sunday 17:0-22:0']""",1,769 Saint Clair Avenue W,63,-79.4286208,43.6809349,M6C 1B4,Italian
Sip Wine Bar,2,3,Mount Pleasant and Davisville,uwT7CppiYkek-Z-661sndQ,"""['Monday 12:0-1:0', 'Tuesday 12:0-1:0', 'Wednesday 12:0-1:0', 'Thursday 12:0-1:0', 'Friday 12:0-1:0', 'Saturday 12:0-2:0', 'Sunday 16:0-0:0']""",1,2 Broadway Avenue,60,-79.398488,43.709659,M4P 1T4,Italian
Archeo,2,3.5,Distillery District,apHPFnDUIaZM7uZoB9DXfw,"""['Monday 12:0-20:0', 'Tuesday 12:0-20:0', 'Wednesday 12:0-20:0', 'Thursday 12:0-20:0', 'Friday 12:0-21:0', 'Saturday 12:0-21:0', 'Sunday 12:0-20:0']""",1,31 Trinity Street,47,-79.35952573,43.65067992,M5A 3C4,Italian
Bar Italia,2,3,Little Italy,tpesKzKbcPFekdThYZ4UpA,"""['Monday 11:0-1:0', 'Tuesday 11:0-1:0', 'Wednesday 11:0-1:0', 'Thursday 11:0-1:0', 'Friday 11:0-2:0', 'Saturday 10:0-2:0', 'Sunday 10:0-1:0']""",1,582 College Street,74,-79.413392,43.6554136,M6G 1B3,Italian
Spacco Restaurant and Bar,2,2.5,Mount Pleasant and Davisville,pVntIctjRuspaO_ULf5zOA,"""['Monday 12:0-2:0', 'Tuesday 12:0-2:0', 'Wednesday 12:0-2:0', 'Thursday 12:0-2:0', 'Friday 12:0-2:0', 'Saturday 12:0-2:0', 'Sunday 12:0-1:0']""",1,2415 Yonge Street,70,-79.398779,43.7105544,M4P 2E7,Italian
Osteria Ciceri e Tria,2,3.5,Downtown Core,3QS2Wgedv3jjKC5vJXJTcA,,1,106 Victoria St,32,-79.3781549,43.6521997,M5C,Italian
Vesuvio Pizzeria & Spaghetti House,2,4,The Junction,PUDtJu2bFTvIl1_WhyUIXQ,,1,3010 Dundas St W,85,-79.4698238,43.6655868,M6P 1Z3,Italian
Lambretta Pizzeria & Wine Bar,2,4,Roncesvalles,xhCiQt_-pMp1nKDXZ7n7BQ,"""['Monday 12:0-21:30', 'Tuesday 12:0-21:30', 'Wednesday 12:0-21:30', 'Thursday 12:0-22:30', 'Friday 12:0-22:30', 'Saturday 12:0-22:30', 'Sunday 12:0-21:30']""",1,89 Roncesvalles Avenue,25,-79.44713056,43.64165965,M6R 2K6,Italian
Banknote Bar,2,3.5,,vExvdgUbU377-Fry2uuv_w,"""['Monday 11:30-2:0', 'Tuesday 11:30-2:0', 'Wednesday 11:30-2:0', 'Thursday 11:30-2:0', 'Friday 11:30-2:0', 'Saturday 11:0-2:0', 'Sunday 11:0-2:0']""",1,663 King Street W,51,-79.4023616,43.6438454,M5V 1M5,Italian
Bar Vespa,2,3,Liberty Village,CUGswyxGdkcd4IE1oHc80A,"""['Monday 11:30-22:0', 'Tuesday 11:30-22:0', 'Wednesday 11:30-23:0', 'Thursday 11:30-23:0', 'Friday 11:30-1:0', 'Saturday 12:0-1:0', 'Sunday 12:0-22:0']""",0,167 E Liberty Street,74,-79.417423,43.638436,M6K 3K4,Italian
7 West Cafe,2,3.5,Downtown Core,JOoblYsQjFT-47tkt6om0A,"""['Monday 6:0-6:0', 'Tuesday 6:0-6:0', 'Wednesday 6:0-6:0', 'Thursday 6:0-6:0', 'Friday 6:0-6:0', 'Saturday 6:0-6:0', 'Sunday 6:0-6:0']""",1,7 Charles Street W,275,-79.38652575,43.66856619,M4Y 1R4,Italian
Positano Restaurant,2,4.5,Mount Pleasant and Davisville,zmfa8RNxqSuOJ9Nx-CMs_Q,"""['Tuesday 17:0-22:0', 'Wednesday 17:0-22:0', 'Thursday 17:0-22:0', 'Friday 17:0-22:0', 'Saturday 17:0-23:0', 'Sunday 17:0-22:0']""",1,633 Mount Pleasant Road,30,-79.3885319,43.7047029,M4S 2M9,Italian
Lo Zingaro,2,4,Queen Street West,fuBpjG-lsD94_BdpjHxbuQ,"""['Tuesday 17:0-22:0', 'Wednesday 17:0-22:0', 'Thursday 17:0-22:0', 'Friday 17:0-23:0', 'Saturday 17:0-23:0']""",0,571 Queen Street  W,71,-79.40094799,43.64770579,M5V 2B6,Italian
Big Mamma's Boy,2,3.5,Cabbagetown,cMrCi3nAcBi3aUKDRAySiw,"""['Monday 16:30-23:0', 'Tuesday 16:30-23:0', 'Wednesday 16:30-23:0', 'Thursday 16:30-23:0', 'Friday 16:30-23:0', 'Saturday 16:30-23:0', 'Sunday 11:0-23:0']""",0,554 Parliament St,12,-79.3690606,43.667001,M4X 1P6,Italian
Cafe Diplomatico,2,3,Little Italy,JK_DiDwbl7HX5OhCAh3h4g,"""['Monday 8:0-1:0', 'Tuesday 8:0-1:0', 'Wednesday 8:0-1:0', 'Thursday 8:0-1:0', 'Friday 8:0-2:0', 'Saturday 8:0-2:0', 'Sunday 8:0-1:0']""",1,594 College St,137,-79.413732,43.655255,M6G 1B3,Italian
Trattoria Nervosa,2,3.5,Yorkville,VA95qAV2PRH9gtTi2Vfv4Q,"""['Monday 11:30-22:0', 'Tuesday 11:30-22:0', 'Wednesday 11:30-22:0', 'Thursday 11:30-23:0', 'Friday 11:30-23:0', 'Saturday 11:30-23:0', 'Sunday 12:0-22:0']""",1,75 Yorkville Avenue,198,-79.3910854,43.6710199,M5R,Italian
Espressamente illy,2,3.5,,i0bD4WCmVHdK92L73CNbgQ,"""['Monday 8:30-21:0', 'Tuesday 8:30-21:0', 'Wednesday 8:30-21:0', 'Thursday 8:30-21:0', 'Friday 8:30-21:0', 'Saturday 8:30-21:0', 'Sunday 10:0-19:0']""",1,"""Yordale Shopping Centre, 3401 Dufferin St""",38,-79.45265293,43.72645219,M6A 3A1,Italian
Queen Margherita Pizza - Baby Point,2,3.5,Bloor-West Village,cA9LmSotIsN3C8zCI94--A,"""['Monday 12:0-22:0', 'Tuesday 12:0-22:0', 'Wednesday 12:0-22:0', 'Thursday 12:0-22:0', 'Friday 12:0-23:0', 'Saturday 12:0-23:0', 'Sunday 12:0-22:0']""",1,785 Annette Street,62,-79.4877396,43.6581688,M6S 2E4,Italian
Mattachioni,2,4.5,The Junction,dGuRCJV66l-K7flfrwEgaA,"""['Monday 8:0-22:0', 'Tuesday 8:0-22:0', 'Wednesday 8:0-22:0', 'Thursday 8:0-22:0', 'Friday 8:0-22:0', 'Saturday 8:0-22:0', 'Sunday 8:0-22:0']""",1,1617 Dupont Street,19,-79.45497255,43.66487589,M6P 3S8,Italian
Camarra's Pizzeria & Restaurant,2,3,,IN8BHY7zkhjUxUh4qnbrHg,"""['Monday 11:30-22:0', 'Tuesday 11:30-22:0', 'Wednesday 11:30-22:0', 'Thursday 11:30-22:0', 'Friday 11:30-22:0', 'Saturday 16:0-22:0', 'Sunday 16:0-22:0']""",1,2899 Dufferin Street,17,-79.4533227,43.7083956,M6B 3S7,Italian
Harvest Kitchen,2,4,,IQ3esF7MvIOCbeVetW51Ng,"""['Monday 17:0-21:0', 'Tuesday 11:30-21:0', 'Wednesday 11:30-21:0', 'Thursday 11:30-22:0', 'Friday 11:30-22:0', 'Saturday 10:0-22:0', 'Sunday 10:0-21:0']""",1,124 Harbord Street,132,-79.4042678,43.6626306,M5S 1G8,Italian
Serra Ristorante,2,3,The Annex,BGK5N70oRV_o6RK7tDnlkw,,0,378 Bloor St W,12,-79.4062449,43.6662923,M5S 1X2,Italian
Alimento,2,4,,slguVsd_fIXyTkYQXNmANw,,0,522 King Street W,22,-79.3976214,43.645304,M5V 1L7,Italian
Raca Cafe and Bar,2,4.5,Parkdale,Bgf9B9d_2rDQHQvE9TnOZg,"""['Tuesday 11:0-16:30', 'Tuesday 17:0-23:0', 'Wednesday 11:0-16:30', 'Wednesday 17:0-23:0', 'Thursday 11:0-16:30', 'Thursday 17:0-23:0', 'Friday 11:0-16:30', 'Friday 17:0-23:0', 'Saturday 11:0-16:30', 'Sunday 11:0-16:30']""",1,1704 Queen Street W,12,-79.444963,43.638961,M6R 1B3,Italian
Li'ly Resto Lounge,2,2.5,Little Italy,BgKZkKE0Xd4Lqd6QMSK14w,"""['Thursday 18:0-4:0', 'Friday 18:0-4:0', 'Saturday 18:0-4:0']""",1,656 College St,13,-79.4164025,43.6550743,M6G 1B8,Italian
Eat Fresh Be Healthy,2,4,Downtown Core,nyM76RUyFzekHHmYEU-KBQ,"""['Monday 11:30-21:0', 'Tuesday 11:30-21:0', 'Wednesday 11:30-21:0', 'Thursday 11:30-21:0', 'Friday 11:30-21:0', 'Saturday 15:0-21:0']""",0,185 Dundas Street W,170,-79.3866757,43.6549946,M5G 1C7,Italian
Fiore,2,3,Downtown Core,y8S8Ff33VKPdRNMFjrJLYA,,0,4 Temperance Street,4,-79.3790972,43.6510304,M5H 2T7,Italian
Crazy Tomato,2,3.5,,4HeS4zlbf-IbwEItbrISlw,,0,Saint Clair East At O'connor,11,-79.3128067,43.7053619,M4B,Italian
90 Second Pizzeria,2,3.5,Entertainment District,ZVJThf69z1Fu-CYm69_xDA,"""['Monday 11:30-22:0', 'Tuesday 11:30-22:0', 'Wednesday 11:30-22:0', 'Thursday 11:30-22:0', 'Friday 11:30-2:0', 'Saturday 11:30-2:0', 'Sunday 11:30-22:0']""",0,259 Queen Street W,6,-79.3890512,43.6501893,M5V 1Z4,Italian
Parkette,2,3.5,West Queen West,FeC5DeqINOSr37y5TABnKA,,0,874 Queen Street W,28,-79.4143964,43.6451986,M6J 1G3,Italian
Borsalino Restaurant & Bar,2,3.5,Scarborough,E_4qAaFMthmlF4hjLjtolg,"""['Monday 11:0-0:0', 'Tuesday 11:0-0:0', 'Wednesday 11:0-0:0', 'Thursday 11:0-1:0', 'Friday 11:0-1:0', 'Saturday 11:0-1:0', 'Sunday 11:0-0:0']""",0,4505 Sheppard Avenue E,17,-79.26505689,43.78815332,M1S 1V3,Italian
Hey Lucy,2,2.5,The Annex,OyiOg9GYKzHI19EbnWqL8A,"""['Monday 16:0-23:30', 'Tuesday 11:30-23:30', 'Wednesday 11:30-2:0', 'Thursday 11:30-0:0', 'Friday 11:30-2:0', 'Saturday 10:0-2:0', 'Sunday 10:0-23:0']""",1,440 Bloor Street W,90,-79.408497,43.6658099,M5R,Italian
Pizzeria Via Mercanti,2,4,Kensington Market,T7yKffTuhiIZclsgjfgowA,"""['Monday 11:0-22:0', 'Tuesday 11:0-22:0', 'Wednesday 11:0-22:0', 'Thursday 11:0-23:0', 'Friday 11:0-0:0', 'Saturday 11:0-0:0', 'Sunday 11:0-22:0']""",1,188 Augusta Avenue,147,-79.4019622,43.6541053,M5T 1M1,Italian
Pizzeria Via Mercanti,2,4,Leslieville,ngpwNIImAFfEl1wzaDDWGA,,1,1501 Gerrard Street East,19,-79.3196334,43.6724498,M4L 2A4,Italian
Uncle Tony's,2,4,St. Lawrence,mH_T6JbQkGdWcL0htKvNxA,"""['Monday 11:30-22:30', 'Tuesday 11:30-22:30', 'Wednesday 11:30-22:30', 'Thursday 11:30-22:30', 'Friday 11:30-0:0', 'Saturday 17:0-0:0']""",1,38 Wellington Street E,29,-79.3750309,43.648368,M5E 1C7,Italian
Napolitan Brick Oven Pizza,2,4.5,Etobicoke,s7XVRYnDgohSDlwtta5euQ,"""['Tuesday 12:0-21:0', 'Wednesday 12:0-21:0', 'Thursday 12:0-21:0', 'Friday 12:0-21:0', 'Saturday 12:0-21:0', 'Sunday 16:0-21:0']""",1,1020 Islington Avenue,19,-79.5186772,43.6310849,M8Z 6A4,Italian
Mr Ciao,2,3.5,Riverdale,Wppq3ceZDMNCr24X4i-kfw,"""['Monday 17:0-2:0', 'Tuesday 17:0-2:0', 'Wednesday 17:0-2:0', 'Thursday 17:0-2:0', 'Friday 17:0-2:0', 'Saturday 17:0-2:0', 'Sunday 17:0-2:0']""",0,598 Gerrard Street E,24,-79.3518608,43.665616,M4M 1Y3,Italian
Domino's Pizza,2,3,,wP6__WwjrJn_i1PdLLehtw,"""['Monday 11:0-1:0', 'Tuesday 11:0-1:0', 'Wednesday 11:0-1:0', 'Thursday 11:0-1:0', 'Friday 11:0-2:0', 'Saturday 11:0-2:0', 'Sunday 11:0-1:0']""",1,784 Eglinton Avenue E,5,-79.3670947,43.7132519,M4G 2L1,Italian
Mamma's Pizza,2,3,,dpP8fIiaxypAD7NBRf38fg,,1,808 York Mills Rd,6,-79.3594009,43.7531263,M3B,Italian
FBI PIZZA,2,3,Etobicoke,q3uuXi_U-Jqxsk5Nx1Iomw,"""['Monday 11:0-0:0', 'Tuesday 11:0-0:0', 'Wednesday 11:0-0:0', 'Thursday 11:0-0:0', 'Friday 11:0-2:0', 'Saturday 11:0-2:0', 'Sunday 11:0-0:0']""",1,2336 Lake Shore Boulevard W,75,-79.488022,43.616765,M8V 1B8,Italian
Bar One Trattoria,2,4,West Queen West,sZMliOne4mADZ2-CqeanZg,"""['Monday 17:0-22:0', 'Tuesday 17:0-23:0', 'Wednesday 17:0-23:0', 'Thursday 17:0-23:0', 'Friday 17:0-2:0', 'Saturday 9:0-2:0', 'Sunday 9:0-23:0']""",0,924 Queen St W,17,-79.4158992,43.6448688,M6J 1G6,Italian
Falasca,2,4,Mount Pleasant and Davisville,WH6TE8U3B5BLRU2Ih4b4mw,"""['Tuesday 11:0-16:30', 'Tuesday 17:30-22:0', 'Wednesday 11:0-16:30', 'Wednesday 17:30-22:0', 'Thursday 11:0-16:30', 'Thursday 17:30-22:0', 'Friday 11:0-16:30', 'Friday 17:30-23:0', 'Saturday 11:0-16:30', 'Saturday 17:30-23:0', 'Sunday 5:30-9:30', 'Sunday 11:0-16:30']""",0,2059 Yonge Street,51,-79.3972851,43.7020135,M4S 2A2,Italian
Pizza e Pazzi,2,2.5,Etobicoke,aYKicBsSzLKr76_bvsURZA,,0,9th Street Lakeshore Boulevard,7,-79.5076076,43.6002871,M8V,Italian
Pizzeria Libretto,2,3.5,Financial District,XT25YpQoNDuzAZHur-HZ8g,"""['Monday 11:30-23:0', 'Tuesday 11:30-23:0', 'Wednesday 11:30-23:0', 'Thursday 11:30-23:0', 'Friday 11:30-23:0', 'Saturday 11:30-23:0', 'Sunday 11:30-23:0']""",1,155 University Avenue,182,-79.3848424,43.6485343,M5H 3B7,Italian
Pizza Rustica,2,3,Entertainment District,E9b73ETPw0VYUJ2_YSJJdQ,"""['Monday 10:0-3:0', 'Tuesday 10:0-3:0', 'Wednesday 10:0-3:0', 'Thursday 10:0-3:0', 'Friday 10:0-3:0', 'Saturday 10:0-3:0', 'Sunday 10:0-3:0']""",1,37 Blue Jays Way,125,-79.391932,43.6450877,M5V 9G9,Italian
Pizzaiolo,2,2,Downtown Core,tBnkwWamzdO6X25sfV0Fyg,"""['Monday 10:0-23:0', 'Tuesday 10:0-23:0', 'Wednesday 10:0-23:0', 'Thursday 10:0-23:0', 'Friday 10:0-23:0', 'Saturday 10:0-23:0', 'Sunday 10:0-23:0']""",1,104 Yonge Street,10,-79.3781243,43.6498025,M5H 1A1,Italian
Frank's Pizza House Restaurant,2,3.5,Corso Italia,W8Rv62fsDCbDp0L-Vl1NFg,"""['Tuesday 16:0-22:0', 'Wednesday 16:0-22:0', 'Thursday 12:0-22:0', 'Friday 12:0-23:0', 'Saturday 12:0-23:0', 'Sunday 16:0-22:0']""",1,1352 St Clair Avenue W,63,-79.4492976,43.6768656,M6E 1C4,Italian
Ferraro 502 Restaurant,2,4,,6LR0Eg5EAMEIES7CY7ITOg,,1,502 Eglinton Avenue W,29,-79.4132906,43.7037926,M5N 1A5,Italian
The Red Tomato,2,3,Entertainment District,CKJnoUSWocdVIj6Fqbgm5g,,1,321 King St W,45,-79.3907967,43.6461163,M5V 1J5,Italian
Bar Milano,2,2.5,Harbourfront,gMONN1bKUHlNKPrYGSADLQ,,1,207 Queens Quay W,44,-79.3808612,43.639499,M5J 1A7,Italian
Osteria Dei Ganzi,2,3.5,Church-Wellesley Village,liCPyfxs-CYXAV_zAmB9dw,"""['Tuesday 17:0-22:0', 'Wednesday 17:0-22:0', 'Thursday 17:0-22:0', 'Friday 17:0-22:0', 'Saturday 17:0-22:0', 'Sunday 17:0-22:0']""",0,504 Jarvis Street,51,-79.3789748,43.6672279,M4Y 2H6,Italian
Florentia,2,3.5,Mount Pleasant and Davisville,x1IPOlH_O5D3qZdZo6YyEA,"""['Monday 11:30-22:0', 'Tuesday 11:30-22:0', 'Wednesday 11:30-22:0', 'Thursday 11:30-22:0', 'Friday 11:30-22:0', 'Saturday 11:0-22:0', 'Sunday 11:0-22:0']""",1,579 Mount Pleasant Road,14,-79.3879764,43.7035596,M4S 2M5,Italian
Enzo,2,4,Niagara,6DWFVwgm3d9jfBUOkJuANQ,,0,646 Queen Street W,15,-79.4063241,43.6467407,M6J 1E4,Italian
Cellar Door,2,4,Etobicoke,MYCrFbGo2-ZiEYqpwiKsrw,"""['Wednesday 17:30-22:0', 'Thursday 17:30-22:0', 'Friday 17:30-22:0', 'Saturday 17:30-22:0', 'Sunday 17:30-21:0']""",1,3003 Lake Shore Boulevard W,29,-79.507713,43.6001012,M8V 2B3,Italian
Da-Maria Pizzeria & Spaghetti House,2,2,,iAdj2sx6LHWt6_zM7U3GLw,"""['Monday 12:0-0:30', 'Tuesday 12:0-0:30', 'Wednesday 12:0-0:30', 'Thursday 12:0-0:30', 'Friday 12:0-0:30', 'Saturday 12:0-0:30', 'Sunday 17:0-22:0']""",1,4 Kenwood Avenue,18,-79.4221371,43.6828248,M6C 2R7,Italian
Viva Napoli,2,3.5,Mount Pleasant and Davisville,gtfLQysuCBEAQk3wwWxwTg,"""['Tuesday 17:0-22:0', 'Wednesday 17:0-22:0', 'Thursday 17:0-22:0', 'Friday 12:0-15:0', 'Friday 17:0-23:0', 'Saturday 12:0-15:0', 'Saturday 17:0-23:0', 'Sunday 12:0-15:0', 'Sunday 17:0-21:30']""",1,679 Mt Pleasant Road,58,-79.3889253,43.7057591,M4S,Italian
Gusto 101,2,4,,B70iTJjcPkuYn8ouUewWgw,"""['Monday 11:30-22:0', 'Tuesday 11:30-22:0', 'Wednesday 11:30-22:0', 'Thursday 11:30-23:0', 'Friday 11:30-1:0', 'Saturday 11:0-1:0', 'Sunday 11:0-22:0']""",1,101 Portland Street,527,-79.40030934,43.64500213,M5V 2N3,Italian
PROP,2,3,Wychwood,oYCx5gO4KkkgYPnglSkk5g,"""['Tuesday 17:0-23:0', 'Wednesday 17:0-23:0', 'Thursday 17:0-23:0', 'Friday 17:0-23:0', 'Saturday 17:0-23:0', 'Sunday 17:0-23:0']""",1,770 St Clair Ave W,20,-79.4287714,43.6811416,M6C 2Z1,Italian
Terroni,2,3.5,Downtown Core,nBl_4gw5ecGzNkHyzfii8g,"""['Monday 9:0-22:0', 'Tuesday 9:0-22:0', 'Wednesday 9:0-22:0', 'Thursday 9:0-22:0', 'Friday 9:0-23:0', 'Saturday 9:0-23:0', 'Sunday 17:0-22:0']""",1,57A Adelaide Street E,376,-79.3755384,43.6510056,M5C 1K6,Italian
Salto Antipasto Lounge,2,4.5,Wychwood,sw3HdidP3E9YiuuLVyfeNw,,1,1138 Davenport Road,5,-79.430894,43.6748309,M6G 2C6,Italian
Sambucas On Church,2,3.5,Church-Wellesley Village,RXyM7VrCiEFthJxQ4bGmBg,,1,489 Church Street,60,-79.3805507,43.665132,M4Y 2C6,Italian
Tavolino,2,4.5,Mount Pleasant and Davisville,RFbMVekR8lU9tPJ8sWrwHg,,1,619 Mount Pleasant Road,10,-79.3882299,43.7042291,M4S 2M5,Italian
Atlas One Cafe,2,4,Wychwood,ZXrjQxam_gy9t3SwzzhhJA,,0,820 St Clair Avenue W,4,-79.4307107,43.6807316,M6C 1B6,Italian
Pizzeria Libretto,2,4,Little Portugal,KVpvE6pOPM9KMvak4HFsNg,"""['Monday 11:30-23:0', 'Tuesday 11:30-23:0', 'Wednesday 11:30-23:0', 'Thursday 11:30-23:0', 'Friday 11:30-23:0', 'Saturday 11:30-23:0', 'Sunday 11:30-23:0']""",1,221 Ossington Ave,463,-79.4203433,43.6490017,M6J 2Z8,Italian
Il Fornello Restaurant,2,3.5,Harbourfront,UcUEUd7a-vnHk14HcVgpDg,,0,207 Queens Quay W,20,-79.3808801,43.6392865,M5J 1A7,Italian
Alice Fazooli's,2,3,Entertainment District,M8jzd1hpwI8p0JqcBCINZw,,0,294 Adelaide Street W,28,-79.3908876,43.6477016,M5V 1P6,Italian
Pizza Roma & Restaurant,2,3,Dovercourt,Px3xYvClWb-wSjyERBFWNw,,0,1090 Bloor Street W,14,-79.4341132,43.6601487,M6H 1M6,Italian
Hey Lucy - Carlton,2,4,,9QgxFnsLqB1CHCA0F2bGzg,"""['Monday 16:30-23:0', 'Tuesday 16:30-23:0', 'Wednesday 11:30-0:0', 'Thursday 11:30-0:0', 'Friday 11:30-0:0', 'Saturday 10:30-0:0', 'Sunday 10:30-23:0']""",1,229 Carlton Street,27,-79.3686058,43.6640012,M5A 2L2,Italian
Fusilli Restaurant,2,3.5,Corktown,jbbFyy2rl8x_7ssz-GifbQ,"""['Monday 11:30-14:30', 'Monday 17:30-22:0', 'Tuesday 11:30-14:30', 'Wednesday 11:30-14:30', 'Wednesday 17:30-22:0', 'Thursday 11:30-14:30', 'Thursday 17:30-22:0', 'Friday 17:30-22:0', 'Saturday 17:30-22:0']""",1,531 Queen Street E,18,-79.3571931,43.6570599,M5A 1V1,Italian
Paul's Spaghetti,2,4,East York,l7bLPv5G6JwOySt8Wo7xkg,,1,488 Cosburn Avenue,26,-79.3334094,43.6929867,M4J 2N5,Italian
Valens Restaurant,2,3.5,Downtown Core,Yqu3km0WcFRdUdrKan-LZA,,1,19 Baldwin Street,47,-79.3929561,43.6560979,M5T 1L1,Italian
Dimmi Bar & Trattoria,2,3.5,Yorkville,js9rQZAlA5rr7oSBRRcCDw,"""['Monday 12:0-2:0', 'Tuesday 12:0-2:0', 'Wednesday 12:0-2:0', 'Thursday 12:0-2:0', 'Friday 12:0-2:0', 'Saturday 12:0-2:0', 'Sunday 12:0-2:0']""",1,140 Cumberland St,131,-79.3927098,43.6700945,M5R 1A8,Italian
Bugigattolo,2,4,Liberty Village,wpbKGlRAc41Oxh7qFXqO1A,"""['Monday 11:0-23:0', 'Tuesday 11:30-23:0', 'Wednesday 11:0-23:0', 'Thursday 11:30-23:0', 'Friday 11:30-23:0', 'Saturday 11:30-23:0', 'Sunday 11:30-23:0']""",1,54 Fraser Avenue,22,-79.42369293,43.63652274,M6K 1Y6,Italian
A3 Napoli,2,4,Little Italy,7bkA-nYNZTAAXF9i5-o-Kw,,1,589 College Street,28,-79.4134057,43.6552211,M6G 1B2,Italian
Pizza Del Arte,2,4,,X4rqmQMJcpY4EajFAFTSlw,"""['Monday 11:0-23:0', 'Tuesday 11:0-23:0', 'Wednesday 11:0-23:0', 'Thursday 11:0-23:0', 'Friday 11:0-23:0', 'Saturday 11:0-23:0', 'Sunday 15:0-21:0']""",1,1480 Bathurst Street,16,-79.41857056,43.68352171,M5R,Italian
Piazzetta Trattoria 3,2,2.5,Mount Pleasant and Davisville,ee2oE4eBA_M5Zi4X7p5WyA,,0,2459 Yonge Street,5,-79.3993216,43.7114013,M4P 2H5,Italian
Daddyo's Pasta & Salads,2,4,University of Toronto,oHgCHC8a3QNJiB4-Ld0_kg,"""['Monday 11:0-22:0', 'Tuesday 11:0-22:0', 'Wednesday 11:0-22:0', 'Thursday 11:0-22:0', 'Friday 11:0-22:0', 'Saturday 11:0-21:0']""",1,673 Spadina Avenue,64,-79.4023841,43.6646017,M5S 2H9,Italian
College Street Bar,2,3,Little Italy,SirdHmqK0LDKDQvJBYVLsA,"""['Wednesday 5:0-2:0', 'Thursday 5:0-2:0', 'Friday 5:0-2:0', 'Saturday 5:0-2:0', 'Sunday 5:0-2:0']""",0,574 College Street,37,-79.4129672,43.6554165,M6G 1B3,Italian
Sambuca Grill,2,3.5,Downtown Core,2KooqK40Nd80sgIPE2ScyA,"""['Monday 11:0-22:0', 'Tuesday 11:0-22:0', 'Wednesday 11:0-22:0', 'Thursday 11:0-22:0', 'Friday 11:0-23:0', 'Saturday 10:0-23:0', 'Sunday 10:0-22:30']""",1,21 Baldwin Street,33,-79.3929869,43.6559901,M5T 1L1,Italian
Nove Trattoria,2,4,Yonge and St. Clair,5RzR64HqnLRHo-MpZ129mQ,"""['Monday 11:30-22:0', 'Tuesday 11:30-22:0', 'Wednesday 11:30-22:0', 'Thursday 11:30-22:0', 'Friday 11:30-22:0', 'Saturday 11:30-22:30', 'Sunday 17:0-21:0']""",1,1406 Yonge St,29,-79.393658,43.6867687,M4T 1Y5,Italian
Scaccia Restaurant,2,3,Yorkville,MDjIylNU6CYq9hR3Qe6hVA,"""['Monday 10:0-20:0', 'Tuesday 10:0-20:0', 'Wednesday 10:0-20:0', 'Thursday 10:0-21:0', 'Friday 10:0-21:0', 'Saturday 10:0-20:0', 'Sunday 11:30-18:0']""",1,55 Bloor Street W,35,-79.3885937,43.6695671,M4W 1A5,Italian
Brigantino's,2,4.5,Greektown,BcK6nlLOs0RC3hxeVLaNdg,,1,401 Danforth Avenue,13,-79.351462,43.6773956,M4K 1P1,Italian
Watts Restaurant,2,3,Scarborough,wtgrvqXDjAFF4LvJW1X-1Q,,1,30 Eglinton Sq,9,-79.3007796,43.724114,M1L 4T2,Italian
Destingo,2,3,Niagara,ow3oP3cfmhlfmSsGaXe25Q,"""['Monday 8:0-0:0', 'Tuesday 8:0-0:0', 'Wednesday 8:0-0:0', 'Thursday 8:0-0:0', 'Friday 8:0-0:0', 'Saturday 9:0-0:0', 'Sunday 9:0-0:0']""",0,741 Queen Street W,58,-79.4070247,43.6465726,M6J 1E5,Italian
Il Gusto Ristorante,2,3,Bickford Park,cbxyYUsJMWk1oEgzfoJ28A,,0,796 College St,8,-79.4213405,43.6547935,M6G 1C6,Italian
Il Sogno Ristorante,2,3.5,Mount Pleasant and Davisville,#NAME?,,1,1993 Yonge St,30,-79.396869,43.7005834,M4S 1Z8,Italian
Rocco Restaurant & Bar,2,4,Etobicoke,WwSwuMu_menj4BzTdrKUdQ,"""['Monday 17:0-23:0', 'Tuesday 12:0-23:0', 'Wednesday 12:0-23:0', 'Thursday 12:0-23:0', 'Friday 12:0-0:0', 'Saturday 11:0-0:0', 'Sunday 11:0-23:0']""",1,2083 Lake Shore Boulevard W,17,-79.4774528,43.6300129,M8V 1A1,Italian
Hey Lucy,2,3.5,Entertainment District,PXN0l42g6IWp18NGJ7yn5w,"""['Monday 16:0-23:30', 'Tuesday 11:30-23:30', 'Wednesday 11:30-2:0', 'Thursday 11:30-0:0', 'Friday 11:30-2:0', 'Saturday 11:30-2:0', 'Sunday 11:30-22:0']""",1,295 King Street W,146,-79.3901316,43.6463276,M5V 1J5,Italian
Pizza e Pazzi,2,3.5,,op0GPkK8YtpTQxSq80lEpw,"""['Monday 17:0-23:0', 'Tuesday 17:0-23:0', 'Wednesday 17:0-23:0', 'Thursday 17:0-23:0', 'Friday 17:0-23:0', 'Saturday 12:0-23:0', 'Sunday 12:0-23:0']""",0,672 St. Clair Avenue W,22,-79.4254574,43.6820353,M6C 1A9,Italian
Balsamico Ristorante,2,4.5,Mount Pleasant and Davisville,B9pMUND3peh4fFtGmqA4LA,,1,2029 Yonge St,16,-79.3972361,43.7015104,M4S 2A2,Italian
One Of A Kind,2,3,West Queen West,KBQcNy9k9G8_a5WtrVGH8w,"""['Monday 11:0-23:30', 'Tuesday 11:0-23:30', 'Wednesday 11:0-23:30', 'Thursday 11:0-23:30', 'Friday 11:0-23:30', 'Saturday 17:0-23:30', 'Sunday 17:0-22:30']""",0,746 Queen Street W,35,-79.4101836,43.6462375,M6J 1E9,Italian
Cinquecento Trattoria,2,3.5,Liberty Village,0Ovh4Vn9ntMt5Ara-ZP2sA,"""['Monday 11:30-15:0', 'Tuesday 11:30-22:0', 'Wednesday 11:30-22:0', 'Thursday 11:30-22:0', 'Friday 11:30-23:0', 'Saturday 12:0-23:0']""",0,"""Liberty Village, 109 Atlantic Ave""",13,-79.4212152,43.6401061,M6K 1X4,Italian
Queen's Pasta Cafe,2,3.5,Swansea,djKTruHtS4n_vlfOknxjRw,"""['Monday 11:30-22:0', 'Tuesday 11:30-22:0', 'Wednesday 11:30-22:0', 'Thursday 11:30-23:0', 'Friday 11:30-23:0', 'Saturday 11:30-23:0', 'Sunday 11:30-22:0']""",1,2263 Bloor St W,52,-79.4779143,43.650588,M6S 1N8,Italian
Pastabilities,2,3.5,St. Lawrence,S8_W8gxq1I5r61iiy_Xt0w,,0,95 King Street E,11,-79.3746797,43.6497601,M5C,Italian
Mercatto,2,3.5,Discovery District,pwtTn72x7Nqp1imaXw9LvQ,"""['Monday 8:0-22:0', 'Tuesday 8:0-22:0', 'Wednesday 8:0-22:0', 'Thursday 8:0-23:0', 'Friday 8:0-23:0', 'Saturday 17:0-23:0']""",1,101 College Street,53,-79.3883154,43.6597782,M5G 1L7,Italian
Sandra's Italian Kitchen,2,4.5,,C-1vkiwcWIuWCNYhwDLCow,,1,"""2899 Steeles Avenue W, Unit 12""",3,-79.4917054,43.781904,M3J 3A1,Italian
Mercatto,2,3.5,Downtown Core,6I27BTuHI5PMvOBG4WS8NQ,"""['Monday 7:0-22:0', 'Tuesday 7:0-22:0', 'Wednesday 7:0-22:0', 'Thursday 7:0-23:0', 'Friday 7:0-23:0', 'Saturday 17:0-23:0']""",1,15 Toronto Street,100,-79.3759067,43.650317,M5C 2E3,Italian
Quattro 4 Ragazze,2,4,The Danforth,mAMWh1htdpk4jYJ6vOvM4g,"""['Monday 11:0-22:0', 'Tuesday 11:0-22:0', 'Wednesday 11:0-22:0', 'Thursday 11:0-22:0', 'Friday 11:0-22:0', 'Saturday 11:0-22:0']""",1,1792 Danforth Avenue,23,-79.3189197,43.6845807,M4C 1H8,Italian
Caffino Ristorante,2,4,Liberty Village,qRTbYc7ennnwfr992kfjdA,"""['Monday 11:30-15:30', 'Tuesday 11:30-15:30', 'Tuesday 17:0-22:0', 'Wednesday 11:30-15:30', 'Wednesday 17:0-22:0', 'Thursday 11:30-15:30', 'Thursday 17:0-22:0', 'Friday 11:30-15:30', 'Friday 17:0-22:0', 'Saturday 16:0-22:0']""",1,1185 King Street W,59,-79.4256081,43.6391994,M6K 3C5,Italian
Piazza Manna,2,3,Downtown Core,sse9sgcNBnZoBCSSEyzDoQ,,1,161 Bay St,5,-79.3790009,43.6464758,M5J 2S4,Italian
True Restaurant,2,3,Yorkville,AbL1xoa1-RVFZwtAk_oYuw,,0,69 Yorkville Ave,10,-79.3909506,43.6711791,M5R 1B8,Italian
Nodo,2,4,The Junction,hcHaWzM5wfdAbCWs4zmmqg,"""['Monday 12:0-22:0', 'Tuesday 12:0-22:0', 'Wednesday 12:0-22:0', 'Thursday 12:0-22:0', 'Friday 12:0-23:0', 'Saturday 12:0-23:0', 'Sunday 12:0-22:0']""",1,2885 Dundas Street W,101,-79.46566164,43.6653384,M6P 1Y9,Italian
Arrabiata Trattoria,2,3.5,Downtown Core,An5srxEwSWXdm0AvlYMLCQ,"""['Monday 11:0-22:0', 'Tuesday 11:0-22:30', 'Thursday 11:0-22:30', 'Friday 11:0-23:0', 'Saturday 11:0-23:0', 'Sunday 11:0-22:0']""",0,692 Yonge St,3,-79.3858624,43.6676333,M4Y 2A6,Italian
Carpano,2,3.5,Palmerston,lPaMg95YRXAqiKMsfXsuEA,"""['Monday 12:0-22:0', 'Tuesday 12:0-22:0', 'Wednesday 12:0-22:0', 'Thursday 12:0-22:0', 'Friday 12:0-22:0', 'Saturday 12:0-22:0', 'Sunday 12:0-22:0']""",0,492 College St,7,-79.4097186,43.6562141,M6G 1A4,Italian
Gamberoni Restaurant,2,3,,ZBSha-zoPLias7wCQ0ZyVw,,1,3238 Yonge Street,15,-79.4035613,43.7295029,M4N 2L4,Italian
Pertino Restaurant,2,2.5,Leslieville,dZNA2tF7kXo7urqKytVHhQ,"""['Monday 16:30-22:30', 'Tuesday 16:30-22:30', 'Wednesday 16:30-22:30', 'Thursday 16:30-22:30', 'Friday 16:30-22:30', 'Saturday 9:30-22:30', 'Sunday 9:30-22:30']""",0,1610 Queen Street E,6,-79.3168437,43.6663526,M4L 1G2,Italian
Camerini Ristorante,2,5,Mount Pleasant and Davisville,5vwA-2fU7A_QY7MqLeHQCg,,0,709 Mount Pleasant Road,6,-79.3894361,43.7066079,M4S 2N4,Italian
Roberto's Ristorante Italiano,2,3.5,,ttCvYknuofQcSiDebuR4ZQ,,1,2622 Yonge Street,14,-79.4003533,43.7151984,M4P 2J4,Italian
Rione XI,2,4,,7vl54MQuqZQlNj4IYakwVg,"""['Tuesday 17:0-22:0', 'Wednesday 17:0-22:0', 'Thursday 17:0-22:0', 'Friday 17:0-22:0', 'Saturday 17:0-22:0', 'Sunday 17:0-22:0']""",1,672 Saint Clair W,11,-79.4255269,43.6819871,M6C 1B1,Italian
Il Fornello,2,3,The Danforth,UP7ejOl-PQyWZ9iFRQD8Xw,,1,576 Danforth Ave,33,-79.3468687,43.678689,M4K 1R1,Italian
Terrazza,2,4,Bickford Park,jNw0Lnb_HVfhFVWe5q-qmw,"""['Tuesday 17:0-23:0', 'Wednesday 17:0-23:0', 'Thursday 17:0-23:0', 'Friday 17:0-0:0', 'Saturday 17:0-0:0', 'Sunday 17:0-23:0']""",1,372 Harbord Street,36,-79.4223089,43.6590509,M6G,Italian
Divino,2,3.5,Yonge and St. Clair,lRidtP8BPrIy7QvFCWpDpg,"""['Monday 11:30-23:30', 'Tuesday 11:30-23:30', 'Wednesday 11:30-23:30', 'Thursday 11:30-23:30', 'Friday 11:30-23:0', 'Saturday 11:30-23:0', 'Sunday 11:30-22:0']""",0,1 Balmoral Avenue,7,-79.3932282,43.6858371,M4V 1J5,Italian
Basso Pizzeria,2,4.5,Corktown,WlINkrwGmUzyR-hoG-pIlw,"""['Monday 17:0-22:0', 'Tuesday 11:30-23:0', 'Wednesday 11:30-23:0', 'Thursday 11:30-23:0', 'Friday 11:30-2:0', 'Saturday 16:0-1:0', 'Sunday 16:0-22:0']""",1,320 Queen Street E,11,-79.3652656,43.6555457,M5A 1S8,Italian
Parmigiano Trattoria,2,4,,lsfFzCl7SXgoq8N5NjbvZA,,1,3186 Yonge Street,21,-79.4031035,43.727844,M4N 2L1,Italian
Il Vagabondo,2,1.5,,wPU74hyOBt0qS8Mw7XOo6A,,0,2700 Dufferin Street,3,-79.4533181,43.7024901,M6B 1P8,Italian
Passione Italiana Ristorante,2,3.5,Yonge and St. Clair,zZAAiNGU2ySMvAlYbvvchg,"""['Monday 8:0-22:0', 'Tuesday 8:0-22:0', 'Wednesday 8:0-22:0', 'Thursday 8:0-22:0', 'Friday 8:0-22:0', 'Saturday 8:0-22:0', 'Sunday 8:0-22:0']""",0,1423 Yonge Street,19,-79.3937128,43.6875359,M4T 1Y7,Italian
Black Skirt,2,4,Dufferin Grove,PPrE3wc9hihGLQOX0Y6nvg,"""['Tuesday 10:0-22:0', 'Wednesday 10:0-22:0', 'Thursday 10:0-22:0', 'Friday 10:0-22:0', 'Saturday 10:0-22:0']""",0,974 College Street,20,-79.4276819,43.6534635,M6H 1A5,Italian
Harvest Cafe & Fine Foods,2,3,The Beach,CnHMPB1BZL7Nx2OyCsSAVQ,,0,1856 Queen St E,4,-79.3072943,43.6684274,M4L,Italian
7 Numbers Restaurant,2,4,,ukAUNyzUcBA4Su8UKjaJKg,"""['Tuesday 17:0-23:0', 'Wednesday 17:0-23:0', 'Thursday 17:0-23:0', 'Friday 17:0-23:0', 'Saturday 17:0-23:0', 'Sunday 17:0-22:0']""",1,516 Eglinton Avenue W,76,-79.4137086,43.7035217,M5N 1A5,Italian
Brownstone Bistro,2,3.5,Church-Wellesley Village,KuxDPl6UYNLxFChPm0_MNw,"""['Monday 10:0-23:0', 'Tuesday 10:0-23:0', 'Wednesday 10:0-23:0', 'Thursday 10:0-23:0', 'Friday 10:0-0:0', 'Saturday 10:0-0:0', 'Sunday 10:0-23:0']""",1,603 Yonge Street,131,-79.3851366,43.6667137,M4Y 1Z5,Italian
Campo de Fiori Restaurant,2,4.5,Etobicoke,6yhhRjPaBMhUye8QWxslzA,"""['Monday 11:30-14:30', 'Tuesday 11:30-14:30', 'Tuesday 17:30-22:0', 'Wednesday 11:30-14:30', 'Wednesday 17:30-22:0', 'Thursday 11:30-14:30', 'Thursday 17:30-22:0', 'Friday 11:30-14:30', 'Friday 17:30-22:0', 'Saturday 17:0-22:30', 'Sunday 12:0-20:0']""",1,3317 Bloor Street W,3,-79.5203961,43.6452419,M8X 1G7,Italian
Sugo Trattoria,2,2.5,Church-Wellesley Village,IYeVJn_RUfyjxfRpD7QzMw,"""['Tuesday 17:0-23:0', 'Wednesday 17:0-23:0', 'Thursday 17:0-23:0', 'Friday 17:0-23:0', 'Saturday 17:0-23:0', 'Sunday 17:0-23:0']""",0,582 Church St,15,-79.3814013,43.6668063,M4Y 2E5,Italian
Portobello Restaurant & Bar,2,2,Discovery District,7NDpbeFYqQE28wKLBZKGFw,,0,995 Bay Street,12,-79.387546,43.6653695,M5S 3A6,Italian
Jerome's Cucina and Bar,2,4,Little Italy,fliaU7_M0PkJuXFYtBhnNw,"""['Tuesday 17:0-22:0', 'Wednesday 17:0-22:0', 'Thursday 17:0-22:0', 'Friday 17:0-22:0', 'Saturday 17:0-22:0']""",1,596 College Street,3,-79.414015,43.6553011,M6G 1B4,Italian
Hey!,2,3,Roncesvalles,TWt-6EilZoSH99CheLPD2A,"""['Monday 10:0-21:0', 'Tuesday 10:0-21:0', 'Wednesday 10:0-22:0', 'Thursday 10:0-22:0', 'Friday 10:0-22:0', 'Saturday 9:0-22:0', 'Sunday 9:0-21:0']""",0,89 Roncesvalles Avenue,36,-79.4471373,43.6416889,M6R 2K6,Italian
Cresta,2,4.5,St. Lawrence,m8oxuFlS2KbhXR0bRKucMA,"""['Tuesday 17:0-22:0', 'Wednesday 17:0-22:0', 'Thursday 17:0-22:0', 'Friday 17:0-23:0', 'Saturday 11:0-23:0', 'Sunday 11:0-22:0']""",0,118 The Esplanade,32,-79.37186777,43.64807285,M5E 1A9,Italian
Scaddabush,2,3.5,Entertainment District,tngl2VZ4VGpK3qFpmU0NMw,"""['Monday 11:0-1:0', 'Tuesday 11:0-1:0', 'Wednesday 11:0-1:0', 'Thursday 11:0-1:0', 'Friday 11:0-2:0', 'Saturday 11:0-2:0', 'Sunday 11:0-1:0']""",1,200 Front Street W,16,-79.3858646,43.6449908,M5V 3K2,Italian
Kit Kat Italian Bar & Grill,2,3.5,Entertainment District,FUqvrauxIP8bcI2aVeoXdg,"""['Monday 11:30-23:30', 'Tuesday 11:30-23:30', 'Wednesday 11:30-23:30', 'Thursday 11:30-0:30', 'Friday 11:30-0:30', 'Saturday 16:0-0:30', 'Sunday 16:0-22:30']""",1,297 King Street W,138,-79.3901407,43.6463534,M5V 1J5,Italian
Levetto,2,4.5,,y769FA7VJOW4QQYdYlR62A,"""['Monday 11:0-22:0', 'Tuesday 11:0-22:0', 'Wednesday 11:0-22:0', 'Thursday 11:0-22:0', 'Friday 11:0-23:0', 'Saturday 11:0-23:0', 'Sunday 11:0-22:0']""",1,68 Sudbury Street,166,-79.4216844,43.6414682,M6J 3S7,Italian
Quanto Basta,2,3.5,Summer Hill,Lzj-_QdzL2bLeHd_bC88Fg,"""['Monday 9:0-2:0', 'Tuesday 9:0-2:0', 'Wednesday 9:0-2:0', 'Thursday 9:0-2:0', 'Friday 9:0-2:0', 'Saturday 9:0-2:0', 'Sunday 9:0-2:0']""",1,1112 Yonge Street,27,-79.3905545,43.6787505,M4W 2L6,Italian
Regina Pizzeria & Trattoria,2,4,Bickford Park,BlrvqjGanZvjlNsnIyvAXQ,"""['Monday 11:0-0:0', 'Tuesday 11:0-0:0', 'Wednesday 11:0-0:0', 'Thursday 11:0-0:0', 'Friday 11:0-0:0', 'Saturday 11:0-0:0', 'Sunday 15:0-23:0']""",1,782 College Street,45,-79.420858,43.654881,M6G 1C6,Italian
Terroni,2,3,Yonge and St. Clair,846lAt9k0-jjM8TbBIRAmg,"""['Monday 9:0-22:30', 'Tuesday 9:0-22:30', 'Wednesday 9:0-22:30', 'Thursday 9:0-23:0', 'Friday 9:0-23:0', 'Saturday 9:0-23:0', 'Sunday 9:0-23:0']""",0,1 Balmoral Ave,22,-79.3930809,43.6853479,M4V 3B9,Italian
The Peasant Table,2,3.5,Riverdale,5a2WPziZW2HoW10H1ovbpQ,"""['Monday 11:30-23:0', 'Tuesday 11:30-23:0', 'Wednesday 11:30-23:0', 'Thursday 11:30-1:0', 'Friday 11:30-1:0', 'Saturday 10:30-1:0', 'Sunday 10:30-23:0']""",1,782 Queen Street E,26,-79.34732406,43.65953565,M4M 1H4,Italian
Pizzeria Libretto,2,4,,4BBda3yy_8GXGmYLcgggHw,"""['Monday 11:30-23:0', 'Tuesday 11:30-23:0', 'Wednesday 11:30-23:0', 'Thursday 11:30-23:0', 'Friday 11:30-23:0', 'Saturday 11:30-23:0', 'Sunday 11:30-23:0']""",1,545 King Street W,32,-79.3988108,43.6445031,M5V 1M1,Italian
PICEA997,2,3,Dovercourt,N-U0o7hIKy3Z6KY_O4RuPg,"""['Tuesday 17:0-23:0', 'Wednesday 17:0-23:0', 'Thursday 17:0-23:0', 'Friday 17:0-23:0', 'Saturday 17:0-23:0', 'Sunday 17:0-23:0']""",0,997 Dupont Street,33,-79.4315486,43.6698988,M6H 1Z5,Italian
Terroni,2,3.5,West Queen West,TFftsYkRIUtdo6ZhRwJ2lQ,"""['Monday 10:0-22:0', 'Tuesday 10:0-22:0', 'Wednesday 10:0-22:0', 'Thursday 10:0-22:30', 'Friday 10:0-23:30', 'Saturday 10:0-23:30', 'Sunday 10:0-22:0']""",1,720 Queen Street W,257,-79.4091417,43.6462693,M6J 1E8,Italian
Verdi,2,3.5,Mount Pleasant and Davisville,ofUx7sIRMBfIAnx_Qb6Klw,,1,1566 Bayview Ave,11,-79.3752859,43.705393,M4G 3B7,Italian
Lil' Baci,2,3.5,Leslieville,4LXZzgsrM1ZyS_-uB9Od2Q,"""['Monday 11:30-22:0', 'Tuesday 11:30-22:0', 'Wednesday 11:30-22:0', 'Thursday 11:30-22:0', 'Friday 11:30-22:0', 'Saturday 10:30-22:0', 'Sunday 10:30-22:0']""",1,892 Queen St E,114,-79.34325685,43.66047765,M4M 1J3,Italian
Faema Caffe,2,2.5,,jM6JjZXFAQQANwdlEwbH3g,"""['Monday 8:0-23:0', 'Tuesday 8:0-23:0', 'Wednesday 8:0-23:0', 'Thursday 8:0-23:0', 'Friday 8:0-0:0', 'Saturday 8:0-0:0', 'Sunday 8:0-11:0']""",1,672 Dupont Street,31,-79.4219971,43.6715393,M6G 1Z6,Italian
Masseria,2,4.5,,9HC5xHX8QE8VmGd-wCKEaA,"""['Monday 11:0-22:0', 'Tuesday 11:0-22:0', 'Wednesday 11:0-22:0', 'Thursday 11:0-22:0', 'Friday 11:0-22:0', 'Saturday 11:0-22:0', 'Sunday 11:0-22:0']""",1,577 King Street W,22,-79.3997431,43.6444204,M5V 1M1,Italian
Rocco's Plum Tomato,2,2.5,Koreatown,omQzbXpCURIShYYeBREO_A,,0,585 Bloor Street W,5,-79.4126466,43.6646884,M6G 1K5,Italian
Metropolitan Resto Bar,2,3.5,Downtown Core,4V_dIB038vy53RHYgEvUcw,"""['Monday 11:30-0:0', 'Tuesday 11:30-0:0', 'Wednesday 11:30-0:0', 'Thursday 11:30-0:0', 'Friday 11:30-0:0']""",1,20 Victoria Street,15,-79.3772196,43.6499935,M5C,Italian
Hey Meatball,2,4,Leslieville,kQ9gVGp5R_jZwLi0-q8PZQ,,1,912 Queen Street  E,59,-79.3422511,43.6606484,M4M 1J5,Italian
Epicure Cafe & Grill,2,3.5,Alexandra Park,nY2oBwH3s5sKox1mERIoVQ,"""['Monday 11:0-1:0', 'Tuesday 11:0-1:0', 'Wednesday 11:0-1:0', 'Thursday 11:0-2:0', 'Friday 11:0-2:0', 'Saturday 11:0-2:0', 'Sunday 11:0-1:0']""",1,502 Queen Street W,80,-79.4012788,43.6477412,M5V 2B3,Italian
Lady Marmalade,2,4,Leslieville,7oEKIG7d1ttPRejppZ3WIA,"""['Monday 8:0-16:0', 'Tuesday 8:0-16:0', 'Wednesday 8:0-16:0', 'Thursday 8:0-16:0', 'Friday 8:0-16:0', 'Saturday 8:0-15:0', 'Sunday 8:0-15:0']""",1,898 Queen Street E,362,-79.3431123,43.66051675,M4M 1J3,Italian
ViPei Bistro,2,4,,0xy5_iqOYWp_XRXpeb-IFQ,,0,3334 Yonge Street,11,-79.4040711,43.7315306,M4N 2M4,Italian
Amore Trattoria,2,3,Mount Pleasant and Davisville,rU3gQnwoCx_bjDJEsxathA,,1,2425 Yonge St,55,-79.3987543,43.7106276,M4P 2E7,Italian
Mio RistoBar,2,3,Downtown Core,_v3WsjEworH53RcWzWKEEw,,1,"""40 King St W, Scotia Bank Plz""",15,-79.379154,43.649024,M5H 4A9,Italian
Melanie's Bistro & Patisserie,2,4,The Danforth,9XLH_grfIYKR7d5ZT9ZX_A,"""['Tuesday 11:30-21:30', 'Wednesday 11:30-21:30', 'Thursday 11:30-21:30', 'Friday 11:30-21:30', 'Saturday 10:0-21:30', 'Sunday 10:0-21:30']""",1,1870 Danforth Avenue,47,-79.3172433,43.6849406,M4C 1J4,Italian
Tosto Quickfire Pizza Pasta,2,3.5,Mount Pleasant and Davisville,XlvpNPAZnzm-DJmKYmK2nQ,"""['Monday 11:0-21:0', 'Tuesday 11:0-21:0', 'Wednesday 11:0-21:0', 'Thursday 11:0-21:0', 'Friday 11:0-22:0', 'Saturday 11:0-22:0', 'Sunday 11:0-21:0']""",1,"""609 Roehampton Avenue, Unit 02""",18,-79.37886804,43.7115783,M4P 1S7,Italian
Bocca On Baldwin,2,3,Downtown Core,Q6Lp73mfUnb7_DVkbzijYA,"""['Monday 11:30-23:0', 'Tuesday 11:30-23:0', 'Wednesday 11:30-23:0', 'Thursday 11:30-23:0', 'Friday 11:30-0:0', 'Saturday 11:30-0:0', 'Sunday 11:30-0:0']""",0,26 Baldwin Street,35,-79.3934155,43.656202,M5T 1L2,Italian
Giovanna Trattoria,2,2,Little Italy,DC3B2efrhw1c6c79BBgYjA,"""['Monday 12:0-22:0', 'Tuesday 12:0-22:0', 'Wednesday 12:0-22:0', 'Thursday 12:0-22:0', 'Friday 12:0-22:0', 'Saturday 12:0-22:0', 'Sunday 12:0-22:0']""",0,637 College St,4,-79.4151228,43.65487,M6G 1B5,Italian
Bar Buca,2,4,,CZY3743GpOOhdDJu6UmPBA,"""['Monday 7:0-2:0', 'Tuesday 7:0-2:0', 'Wednesday 7:0-2:0', 'Thursday 7:0-2:0', 'Friday 7:0-2:0', 'Saturday 8:0-2:0', 'Sunday 8:0-2:0']""",1,75 Portland Street,149,-79.39984039,43.64392294,M5V,Italian
Forget About It,2,3.5,Entertainment District,Pueu_ofuGNpX2dRf-GHt_A,"""['Tuesday 17:0-1:0', 'Wednesday 17:0-1:0', 'Thursday 17:0-1:0', 'Friday 17:0-1:0', 'Saturday 17:0-1:0', 'Sunday 17:0-1:0']""",1,325 King Street W,35,-79.39115415,43.64619733,M5V 1J5,Italian
La Vecchia Ristorante,2,4,Mount Pleasant and Davisville,59c3Cp-p5i18xFCKUuCkFQ,"""['Monday 11:30-23:0', 'Tuesday 11:30-23:0', 'Wednesday 11:30-23:0', 'Thursday 11:30-23:0', 'Friday 11:30-23:30', 'Saturday 10:0-0:0', 'Sunday 10:0-23:0']""",1,2405A Yonge Street,177,-79.3987926,43.7100711,M4P 2E7,Italian
Via Vai Pizzeria & Wine Bar,2,2.5,Discovery District,G3rk0dDROzpDdTugsnSDTw,"""['Monday 11:0-23:0', 'Tuesday 11:0-23:0', 'Wednesday 11:0-23:0', 'Thursday 11:0-23:0', 'Friday 11:0-0:0', 'Saturday 10:0-23:0', 'Sunday 10:0-23:0']""",0,832 Bay Street,52,-79.3862897,43.6617048,M5S 1Z6,Italian
Stelvio,2,4,Entertainment District,esnvHQxunLTAckQpntqbCg,"""['Monday 17:0-22:0', 'Tuesday 17:0-22:0', 'Wednesday 17:0-22:0', 'Thursday 17:0-22:0', 'Friday 11:0-23:0', 'Saturday 11:0-23:0', 'Sunday 17:0-22:0']""",1,354 Queen Street W,33,-79.3954138,43.6489482,M5V 2A5,Italian
Ultimate Cafe,2,2.5,Entertainment District,N8bCOvrGH69jD3-CRc6Fpw,,0,293 King Street W,24,-79.3900847,43.6464876,M5V 1J5,Italian
Panda House,2,4,,a8PzL5rUpCa8MiQEuLZaOQ,"""['Tuesday 16:0-22:0', 'Wednesday 16:0-22:0', 'Thursday 16:0-22:0', 'Friday 16:0-23:0', 'Saturday 16:0-23:0', 'Sunday 16:0-21:0']""",0,2714 Saint Clair Avenue E,9,-79.31150085,43.70587312,M4B 1M6,Italian
Trattoria Mercatto,2,3.5,Downtown Core,lvv9Vv_5i4IwvDdofO_rKg,"""['Monday 11:30-23:0', 'Tuesday 11:30-23:0', 'Wednesday 11:30-23:0', 'Thursday 11:30-23:0', 'Friday 11:30-23:0', 'Saturday 11:30-23:0', 'Sunday 12:0-21:0']""",1,"""Eaton Center, 220 Yonge Street""",122,-79.3800603,43.6536106,M5B 2H1,Italian
Doria,2,3,Summer Hill,o1Y1JV8khAMD3yMUZymr5g,"""['Monday 8:0-16:0', 'Tuesday 8:0-16:0', 'Wednesday 8:0-16:0', 'Thursday 8:0-16:0', 'Friday 8:0-16:0', 'Saturday 8:0-16:0', 'Sunday 9:0-16:0']""",0,1094 Yonge Street,7,-79.3901116,43.6783506,M4W 2L6,Italian
Louis Souvlaki & Grill,2,3.5,Scarborough,D5XAErxJj5VbQjaQypb4Ig,"""['Monday 11:0-21:0', 'Tuesday 11:0-21:0', 'Wednesday 11:0-21:0', 'Thursday 11:0-21:0', 'Friday 11:0-21:0', 'Saturday 11:0-21:0', 'Sunday 11:0-21:0']""",1,"""371 Old Kingston Road, Unit 12A""",7,-79.169624,43.782833,M1C 1B7,Italian
Little Fin,2,3.5,Downtown Core,x6PA-2j7LpZAYFo2VojmQQ,"""['Monday 8:0-20:0', 'Tuesday 8:0-20:0', 'Wednesday 8:0-20:0', 'Thursday 8:0-20:0', 'Friday 8:0-20:0', 'Saturday 11:0-20:0']""",1,4 Temperance Street,128,-79.3791616,43.6510992,M5H 1Y4,Italian
CSB,2,3,Little Italy,eMP3ffj6Zr7o3tY2G6EgSQ,"""['Wednesday 17:0-2:0', 'Thursday 17:0-2:0', 'Friday 17:0-2:0', 'Saturday 17:0-2:0', 'Sunday 17:0-2:0']""",1,574 College Street,9,-79.4129672,43.6554165,M6G 1B3,Italian
Acquolina Ristorante,2,3,,61GK4EGXBd4uha_2unicNw,"""['Tuesday 17:30-22:0', 'Wednesday 17:30-22:0', 'Thursday 17:30-22:0', 'Friday 17:30-22:0', 'Saturday 17:30-22:0']""",0,760 Saint Clair Avenue W,11,-79.4283861,43.6813132,M6C 1B5,Italian
Oliver & Bonacini Caf Grill,2,3,Bayview Village,pOEL97ld-FJMKO8Ki8JmYg,"""['Monday 11:0-21:0', 'Tuesday 11:0-22:0', 'Wednesday 11:0-22:0', 'Thursday 11:0-22:0', 'Friday 11:0-22:0', 'Saturday 11:0-22:0', 'Sunday 10:0-21:0']""",1,"""Bayview Village, 2901 Bayview Avenue""",189,-79.38548,43.7690687,M2K 1E6,Italian
The Old Spaghetti Factory,2,3,St. Lawrence,hlrZHM4D48XiQtXh6cRg_w,"""['Monday 11:30-22:0', 'Tuesday 11:30-22:0', 'Wednesday 11:30-22:0', 'Thursday 11:30-22:0', 'Friday 11:30-23:0', 'Saturday 11:30-23:0', 'Sunday 11:30-22:0']""",1,54 The Esplanade,196,-79.3743409,43.6469106,M5E 1A6,Italian
Hot House Restaurant & Bar,2,3.5,St. Lawrence,Orgm9nmcClxnAUva4nOKyA,"""['Monday 11:0-23:0', 'Tuesday 11:0-23:0', 'Wednesday 11:0-23:0', 'Thursday 11:0-23:0', 'Friday 11:0-0:0', 'Saturday 10:0-0:0', 'Sunday 9:30-23:0']""",1,35 Church Street,231,-79.37373434,43.64881956,M5E 1T3,Italian
Big Papa Trattoria,2,3,Etobicoke,IKhwrMO42BecLZU4Pdwulw,,0,2982 Bloor St W,6,-79.5096724,43.6479035,M8X 1B9,Italian
Trapezzi,2,3.5,Greektown,kmPZPIbulnOv3Btg9YGWrA,,0,505 Danforth Avenue,3,-79.3489693,43.6781015,M4K 1P5,Italian
Strada 241,2,3.5,Alexandra Park,kYZJ94hdzbhZIIXhIZU5Dw,,0,241 Spadina Avenue,55,-79.3972263,43.6515584,M5T,Italian
Cafe Bar Pasta,2,4,Brockton Village,JG26f5Ppxvmz1EP6nh2WkQ,"""['Tuesday 17:0-23:0', 'Wednesday 17:0-23:0', 'Thursday 17:0-23:0', 'Friday 17:0-23:0', 'Saturday 9:0-23:0']""",0,1588 Dundas Street W,23,-79.4347325,43.6499595,M6K 1T8,Italian
Scaddabush Italian Kitchen & Bar,2,3,Scarborough,FfF8XGFf8_BSlWSjIgqeQg,"""['Monday 11:30-1:0', 'Tuesday 11:30-1:0', 'Wednesday 11:30-1:0', 'Thursday 11:30-2:0', 'Friday 11:30-2:0', 'Saturday 11:30-2:0', 'Sunday 11:30-1:0']""",1,580 Progress Avenue,54,-79.25456938,43.77772851,M1P 2K2,Italian
ViVetha Bistro,2,3.5,The Beach,O5_CKNQOmtRHY_CjOB6XYA,"""['Monday 8:0-22:0', 'Tuesday 8:0-22:0', 'Wednesday 8:0-22:0', 'Thursday 8:0-22:0', 'Friday 8:0-23:0', 'Saturday 8:0-23:0', 'Sunday 8:0-22:0']""",1,2485 Queen Street E,47,-79.2821106,43.6736249,M4E 1H9,Italian
April Bambina,2,4,Leslieville,WbMZHFOOzjmQybWyHdfDxA,"""['Monday 16:0-22:0', 'Tuesday 16:0-22:0', 'Wednesday 16:0-22:0', 'Thursday 16:0-22:0', 'Friday 16:0-23:0', 'Saturday 16:0-23:0', 'Sunday 16:0-22:0']""",1,1054 Gerrard Street E,33,-79.33609,43.6692354,M4M 1Z8,Italian
Frascati,2,3.5,Downtown Core,Fihzq3H6od0AP2WFLCE5yQ,"""['Monday 11:0-14:30', 'Monday 17:0-23:0', 'Tuesday 11:0-14:30', 'Tuesday 17:0-23:0', 'Wednesday 11:0-14:30', 'Wednesday 17:0-23:0', 'Thursday 11:0-14:30', 'Thursday 17:0-23:0', 'Friday 11:0-14:30', 'Friday 17:0-23:0', 'Saturday 17:0-23:0', 'Sunday 17:0-23:0']""",1,13 Elm Street,15,-79.3823435,43.657548,M5G 1H1,Italian
Lakvino Ristorante,2,3.5,The Annex,KKUfGvyBDVqdZXXqS3uDrw,,0,525 Bloor Street W,7,-79.409162,43.6655406,M5S 1Y5,Italian
East Side Mario's,2,2.5,Downtown Core,v9jNkOIBfP4aW2ru50Rn-A,,0,151 Front Street W,26,-79.38461352,43.64474692,M5J 2N1,Italian
Upper Crust,2,3,Leslieville,d8LRNKz3_Cc5MlEQGWZ5Ag,,0,1008 Queen Street E,13,-79.3391867,43.6613875,M4M 1K1,Italian
Caffe Di Portici,2,4,Yorkville,p1ohbPwI1QfjHQ2zRup5OA,"""['Monday 7:30-21:0', 'Tuesday 7:30-21:0', 'Wednesday 7:30-21:0', 'Thursday 7:30-21:0', 'Friday 7:30-21:0', 'Saturday 8:0-21:0', 'Sunday 9:0-21:0']""",1,6 Scollard Street,58,-79.3877966,43.6726696,M5R 3K8,Italian
Il Gelatiere,2,4,Mount Pleasant and Davisville,zV38gkkEeJ4cVRlSWWQTfQ,"""['Monday 10:0-21:0', 'Tuesday 10:0-22:0', 'Wednesday 10:30-22:0', 'Thursday 10:0-22:0', 'Friday 10:30-22:0', 'Saturday 11:0-23:0', 'Sunday 13:0-21:0']""",1,647 Mount Pleasant Road,48,-79.388712,43.7053513,M4S 2N2,Italian
Pasta Pantry,2,5,Mount Pleasant and Davisville,P0-oxpGOTqRYbXNUye0IFw,"""['Monday 11:0-19:0', 'Tuesday 11:0-19:0', 'Wednesday 11:0-19:0', 'Thursday 11:0-19:0', 'Friday 11:0-19:0', 'Saturday 10:0-18:0']""",1,1997 Yonge Street,16,-79.3969147,43.7007399,M4S 1Z8,Italian
Sicilian Sidewalk Cafe,2,3.5,Bickford Park,im8sxT2V-drSvxP17qdb2A,"""['Monday 9:0-1:0', 'Tuesday 9:0-1:0', 'Wednesday 9:0-1:0', 'Thursday 9:0-2:0', 'Friday 9:0-2:0', 'Saturday 9:0-2:0', 'Sunday 9:0-2:0']""",1,712 College Street,60,-79.4185968,43.6553573,M6G 1C3,Italian
Joe Badali's Ristorante Italiano & Bar,2,3,Downtown Core,#NAME?,"""['Monday 11:30-21:0', 'Tuesday 11:30-22:0', 'Wednesday 11:30-22:0', 'Thursday 11:30-23:0', 'Friday 11:30-23:0', 'Saturday 12:0-23:0', 'Sunday 12:0-21:0']""",1,156 Front Street W,88,-79.3843036,43.6452817,M5J 2L6,Italian
Caroline's,2,1.5,Cabbagetown,WoiF62tItSFtgO6gLrj_Hg,"""['Monday 16:30-1:0', 'Tuesday 16:30-1:0', 'Wednesday 16:30-1:30', 'Thursday 16:30-2:0', 'Friday 16:30-2:0', 'Saturday 11:0-2:0', 'Sunday 11:0-1:0']""",0,554 Parliament Street,6,-79.3690648,43.6669665,M4X 1P7,Italian
Jamie's Italian,2,3,,L3R7y3_tUKQlM9kor4-Ccw,"""['Monday 11:0-23:0', 'Tuesday 11:0-23:0', 'Wednesday 11:0-23:0', 'Thursday 11:0-23:0', 'Friday 11:0-23:0', 'Saturday 11:0-23:0', 'Sunday 11:0-23:0']""",1,"""Yorkdale Shopping Centre, 3401 Dufferin Street, Unit 20""",216,-79.45305781,43.72664615,M6A 2T9,Italian
Vagabondo Italian Ristorante+Lounge,2,3,St. Lawrence,YSUcHqlKMPHHJ_cTrqtNrA,"""['Monday 11:0-23:0', 'Tuesday 11:0-23:0', 'Wednesday 11:0-23:0', 'Thursday 11:0-23:0', 'Friday 11:0-23:0', 'Saturday 12:0-23:0', 'Sunday 12:0-22:0']""",1,32 Wellington Street E,52,-79.375238,43.6483205,M5E 1C6,Italian
La Bettola di Terroni,2,3,Downtown Core,VBcmyBxAPcpzbbnPbFfttA,,1,106 Victoria St,92,-79.3779109,43.6520707,M5C 2B4,Italian
No One Writes To The Colonel,2,4,Little Italy,9CYZaEbU3KjdLFMkKbUXVw,"""['Monday 17:30-2:0', 'Tuesday 17:30-2:0', 'Wednesday 17:30-2:0', 'Thursday 17:30-2:0', 'Friday 17:0-2:0', 'Saturday 17:0-2:0', 'Sunday 5:30-2:0']""",1,460 College Street,82,-79.4083156,43.6563535,M6G 1A4,Italian
Riva,2,2.5,Little Italy,aRut7oOB3wIuVQXLCrvEzQ,"""['Tuesday 17:0-2:0', 'Wednesday 17:0-2:0', 'Thursday 17:0-2:0', 'Friday 17:0-2:0', 'Saturday 17:0-2:0', 'Sunday 17:0-2:0']""",1,584 College St,5,-79.4133905,43.6554173,M6G,Italian
Locus144,2,4,Liberty Village,FySLcpQNaDK_wrKmZA02cw,"""['Wednesday 17:0-2:0', 'Thursday 17:0-2:0', 'Friday 17:0-2:0', 'Saturday 19:0-2:0']""",1,"""171 East Liberty St, Unit 144""",10,-79.4190937,43.6379398,M6K 3P6,Italian
Domani Restaurant & Wine Bar,2,3,High Park,eVurjy0t-82KGUfPf2ViGQ,"""['Monday 11:0-14:0', 'Monday 16:0-23:0', 'Tuesday 11:0-14:0', 'Tuesday 16:0-22:0', 'Wednesday 11:0-14:0', 'Wednesday 16:0-22:0', 'Thursday 11:0-14:0', 'Thursday 16:0-22:0', 'Friday 11:0-15:0', 'Friday 16:0-23:0', 'Saturday 15:0-23:0', 'Sunday 11:0-14:0', 'Sunday 16:0-22:0']""",1,335 Roncesvalles Avenue,11,-79.4500658,43.64929,M6R 2M8,Italian
Pizza Pizza,2,3,Riverdale,bbLmWFHAr-dCR8KHVla8aQ,"""['Monday 11:0-2:0', 'Tuesday 11:0-2:0', 'Wednesday 11:0-2:0', 'Thursday 11:0-3:0', 'Friday 11:0-3:0', 'Saturday 11:0-3:0', 'Sunday 11:0-2:0']""",1,85 Danforth Avenue,4,-79.3589764,43.6760141,M4K 1M9,Italian
Piazzetta Trattoria,2,3.5,,c8DsYusKjQYUxnTj9BtVvA,"""['Monday 17:0-22:0', 'Tuesday 17:0-22:0', 'Wednesday 17:0-22:0', 'Thursday 17:0-22:0', 'Friday 17:0-23:0', 'Saturday 17:0-23:0', 'Sunday 17:0-22:0']""",1,3441 Yonge Street,18,-79.4043843,43.7335568,M4N 2N1,Italian
Famoso Neopolitan Pizzeria,2,3.5,,whyNu5Cl8gMiQkdWPzaDXQ,"""['Monday 11:0-22:0', 'Tuesday 11:0-22:0', 'Wednesday 11:0-22:0', 'Thursday 11:0-22:0', 'Friday 11:0-22:0', 'Saturday 11:0-22:0', 'Sunday 11:0-20:0']""",0,"""3401 Dufferin Street, Unit R04""",29,-79.4553801,43.7247752,M6A 3A1,Italian
C House Lounge Cafe,2,2,Yorkville,_tWzGYtWJsPL657zfzvkTg,"""['Monday 12:0-22:0', 'Tuesday 12:0-22:0', 'Wednesday 12:0-22:0', 'Thursday 12:0-22:0', 'Friday 12:0-0:0', 'Saturday 12:0-0:0', 'Sunday 12:0-22:0']""",0,70 Yorkville Avenue,9,-79.3908793,43.6712923,M5R 1B9,Italian
The Standard Pizza & Pasta Bar,2,3,Little Italy,kExmc2lS8BhFFlh9sjvuSA,"""['Monday 10:30-2:0', 'Tuesday 10:30-2:0', 'Wednesday 10:30-2:0', 'Thursday 10:30-2:0', 'Friday 10:30-2:0', 'Saturday 10:30-2:0', 'Sunday 10:30-2:0']""",1,667 College Street,51,-79.4168398,43.6549406,M6G 1B9,Italian
John's Italian Caffe,2,3.5,Downtown Core,lZlaPghRe2Z1EkMUsFKOuw,"""['Monday 11:0-23:0', 'Tuesday 11:0-23:0', 'Wednesday 11:0-23:0', 'Thursday 11:0-23:0', 'Friday 11:0-23:0', 'Saturday 11:0-23:0', 'Sunday 11:0-23:0']""",0,27 Baldwin Street,34,-79.3931943,43.6559335,M5T 1L1,Italian
Forest Hill Pizza,2,3.5,,U4H4vWjfmhFBC9vzH1HH9A,"""['Monday 11:0-23:0', 'Tuesday 11:0-23:0', 'Wednesday 11:0-23:0', 'Thursday 11:0-23:0', 'Friday 11:0-23:0', 'Saturday 11:0-23:0', 'Sunday 11:0-23:0']""",0,868 Eglinton Avenue W,5,-79.4262166,43.7009998,M6C 2B6,Italian
Classico Pizza & Pasta,2,3.5,Swansea,AP9vhzzu0H-ZOxyEStlegQ,"""['Monday 11:0-23:0', 'Tuesday 11:0-23:0', 'Wednesday 11:0-23:0', 'Thursday 11:0-23:0', 'Friday 11:0-23:0', 'Saturday 11:0-23:0', 'Sunday 11:0-23:0']""",0,2457 Bloor Street W,17,-79.4846163,43.6490049,M6S 1P7,Italian
Fort York Pizzeria,2,2.5,,3psSpUMwT4zdNca2pOPxRw,"""['Monday 10:0-23:0', 'Tuesday 10:0-23:0', 'Wednesday 10:0-23:0', 'Thursday 10:0-23:0', 'Friday 10:0-1:0', 'Saturday 10:0-1:0', 'Sunday 10:0-23:0']""",1,"""219 Fort York Boulevard, Unit 8""",7,-79.4054293,43.6366044,M5V 1B1,Italian
Pizza Banfi,2,4,,mZULBMjzhkQub7nqtHqSlQ,"""['Monday 12:0-14:30', 'Monday 17:30-23:0', 'Tuesday 12:0-14:30', 'Tuesday 17:30-23:0', 'Wednesday 12:0-14:30', 'Wednesday 17:30-23:0', 'Thursday 12:0-14:30', 'Thursday 17:30-23:0', 'Friday 12:0-14:30', 'Friday 17:30-23:0', 'Saturday 12:0-14:30', 'Saturday 17:30-23:0']""",1,333 Lonsdale Rd,20,-79.4127223,43.6886154,M5P 1R3,Italian
Fusaro's,2,4,Corktown,C4sVRSWeWuXo0OtnXewsjQ,"""['Monday 9:0-21:0', 'Tuesday 9:0-21:0', 'Wednesday 9:0-21:0', 'Thursday 9:0-21:0', 'Friday 9:0-21:0', 'Saturday 10:0-16:0']""",1,294 Richmond Street E,53,-79.3694324,43.6534228,M5A 4S7,Italian
Qui Ristorante Pizzeria,2,4.5,,sF7md_NdYUzXLl5ZtwwC4g,,1,1654 St. Clair Avenue W,8,-79.4575754,43.6749301,M6N 1H8,Italian
Domino's Pizza,2,4,The Danforth,6d7aOsiinhme6BB7s2QmZQ,"""['Monday 11:0-0:0', 'Tuesday 11:0-0:0', 'Wednesday 11:0-0:0', 'Thursday 11:0-0:0', 'Friday 11:0-2:0', 'Saturday 11:0-2:0', 'Sunday 11:0-0:0']""",1,873 Danforth Ave,8,-79.3395009,43.6796679,M4J 1L8,Italian
Levetto,2,4.5,Chinatown,qUWqjjjfpB2-4P3He5rsKw,"""['Monday 11:0-22:0', 'Tuesday 11:0-22:0', 'Wednesday 11:0-22:0', 'Thursday 10:0-22:0', 'Friday 11:0-23:0', 'Saturday 11:0-23:0', 'Sunday 11:0-22:0']""",1,"""382 Spadina Avenue, Main Floor""",68,-79.3993028,43.6552886,M5T 2G5,Italian
Pizza Pizza,2,2.5,Harbourfront,uuDxjiidiIb6dTsV9edUTA,"""['Monday 11:0-2:0', 'Tuesday 11:0-2:0', 'Wednesday 11:0-2:0', 'Thursday 11:0-3:0', 'Friday 11:0-3:0', 'Saturday 11:0-3:0', 'Sunday 11:0-2:0']""",1,"""208 Queens Quay W, Unit 9 10""",5,-79.3817311,43.640257,M5J 2Y5,Italian
Mattino,2,1.5,Little Italy,oPDpXdT4CyldMoEbRiHtZQ,"""['Tuesday 17:0-1:0', 'Wednesday 17:0-1:0', 'Thursday 17:0-3:0', 'Friday 12:0-3:0', 'Saturday 12:0-3:0']""",1,596 College St,3,-79.414034,43.6552964,M6G,Italian
Gio Rana's Really Really Nice Restaurant,3,4,Leslieville,3qTSOuJ-ZyU1L7o62KHSIg,"""['Monday 18:0-23:0', 'Tuesday 18:0-23:0', 'Wednesday 18:0-23:0', 'Thursday 18:0-23:0', 'Friday 18:0-23:0', 'Saturday 18:0-23:0']""",1,1220 Queen Street E,166,-79.33041893,43.66333534,M4M 1L7,Italian
Lardon Restaurant,3,4,High Park,0txNpCq2YunZSL7jHIiGlA,"""['Tuesday 17:0-22:0', 'Wednesday 17:0-22:0', 'Thursday 17:0-22:0', 'Friday 17:0-22:0', 'Saturday 17:0-22:0']""",0,390 Roncesvalles Avenue,18,-79.4508492,43.6508821,M6R 2M9,Italian
Kiwe Kitchen,3,3,,Ehl4wwFZnB6WhiHt-0tIwA,,0,587 King Street W,23,-79.40018613,43.64434639,M5V 1M5,Italian
Mideastro Yorkville,3,3.5,Yorkville,tgjbQEtZ_bvQBJOlfiK1OA,"""['Monday 17:0-22:0', 'Tuesday 17:0-22:0', 'Wednesday 17:0-22:0', 'Thursday 17:0-22:0', 'Friday 17:0-23:0', 'Saturday 17:0-23:0', 'Sunday 17:0-22:0']""",0,27 Yorkville Avenue,27,-79.3888742,43.6715509,M4W 1L4,Italian
Trattoria Giancarlo,3,3.5,Little Italy,k4PFaATcPO0tvTetNbdm8Q,"""['Monday 18:0-23:0', 'Tuesday 18:0-23:0', 'Wednesday 18:0-23:0', 'Thursday 18:0-23:0', 'Friday 18:0-23:0', 'Saturday 18:0-23:0']""",1,41 Clinton St,22,-79.4137535,43.6549566,M6J 2N9,Italian
Bar Mercurio,3,3.5,The Annex,MUjlAtBNJR--7ai5pITbMg,"""['Monday 11:30-23:0', 'Tuesday 11:30-23:0', 'Wednesday 11:30-23:0', 'Thursday 11:30-23:0', 'Friday 11:30-23:0', 'Saturday 17:30-23:0']""",1,270 Bloor Street W,30,-79.4004614,43.6675743,M5S 1V8,Italian
Coco Lezzone,3,3.5,The Annex,PmLFk1s8pPVNXChqETM4MA,"""['Monday 16:0-2:0', 'Tuesday 16:0-2:0', 'Wednesday 16:0-2:0', 'Thursday 16:0-2:0', 'Friday 16:0-2:0', 'Saturday 16:0-2:0', 'Sunday 16:0-2:0']""",0,137 Avenue Road,17,-79.3962418,43.6739132,M5R 2H4,Italian
Ardo Restaurant,3,4,Corktown,oE1EuKY2GmpfIiSGy3YmGw,"""['Monday 11:0-0:0', 'Tuesday 11:0-0:0', 'Wednesday 11:0-0:0', 'Thursday 11:0-0:0', 'Friday 11:0-0:0', 'Saturday 11:0-0:0']""",1,243 King Street E,27,-79.3684701,43.6511417,M5A 1J9,Italian
Sotto Voce Wine & Pasta Bar,3,3.5,Little Italy,va7QuRicUp1Klt5dyCR7mg,"""['Monday 17:0-0:0', 'Tuesday 17:0-0:0', 'Wednesday 17:0-2:0', 'Thursday 17:0-2:0', 'Friday 17:0-2:0', 'Saturday 17:0-2:0', 'Sunday 10:0-2:0']""",1,595 College Street,19,-79.4138047,43.6552225,M6G 1B2,Italian
Ovest Cucina E Vineria,3,3.5,Niagara,uIuJGLPWli4dbomvANcuiQ,"""['Monday 11:30-14:30', 'Monday 17:0-22:30', 'Tuesday 11:30-14:30', 'Tuesday 17:0-22:30', 'Wednesday 11:30-14:30', 'Wednesday 17:0-22:30', 'Thursday 11:30-14:30', 'Thursday 17:0-23:0', 'Friday 11:30-14:30', 'Friday 17:0-23:0', 'Saturday 17:0-23:0', 'Sunday 17:0-22:30']""",1,788 King Street W,29,-79.4066254,43.64317,M5V 1N6,Italian
Cibo Wine Bar,3,3.5,,oKZPgeCOxnVSxudYcn1OtQ,"""['Monday 11:30-0:0', 'Tuesday 11:30-0:0', 'Wednesday 11:30-0:0', 'Thursday 11:30-2:0', 'Friday 11:30-2:0', 'Saturday 11:30-2:0', 'Sunday 11:30-0:0']""",1,522 King Street W,207,-79.3974485,43.6450817,M5V 1L7,Italian
Blu Ristorante,3,4,Yorkville,OIBF9WI7vuWo03AyvJd-0g,"""['Monday 17:30-23:30', 'Tuesday 17:30-23:30', 'Wednesday 17:30-23:30', 'Thursday 17:30-0:0', 'Friday 17:30-1:0', 'Saturday 17:30-1:0', 'Sunday 17:0-23:0']""",1,17 Yorkville Avenue,87,-79.3883391,43.6713916,M4W 1L1,Italian
Ascari Enoteca,3,4,Leslieville,U3xIe5_9iK95S9HxduOgWw,"""['Monday 17:30-0:0', 'Tuesday 17:30-22:0', 'Wednesday 17:30-22:0', 'Thursday 17:30-22:0', 'Friday 17:30-23:0', 'Saturday 17:30-23:0', 'Sunday 17:30-22:0']""",1,1111 Queen Street E,74,-79.3353522,43.6620741,M4M,Italian
Cibo Wine Bar,3,3,Yorkville,7ZBh-3wWVQ5zkd6KZytW0g,"""['Monday 11:30-0:0', 'Tuesday 11:30-0:0', 'Wednesday 11:30-0:0', 'Thursday 11:30-2:0', 'Friday 11:30-2:0', 'Saturday 11:30-2:0', 'Sunday 11:30-0:0']""",1,133 Yorkville Avenue,53,-79.3935696,43.670462,M5R 1C4,Italian
Left Bank Grill & Wine Bar,3,2.5,,ct-giKPfU5KqDSZPblIPiQ,"""['Tuesday 17:0-22:0', 'Wednesday 17:0-22:0', 'Thursday 17:0-22:0', 'Friday 17:0-22:0', 'Saturday 16:30-22:30', 'Sunday 17:0-22:0']""",0,2015 Avenue Road,3,-79.4197788,43.7354671,M5M 4A5,Italian
Oliver & Bonacini Caf Grill,3,3.5,St. Lawrence,eQCYur0033RkZdh5VjbF8A,"""['Monday 12:0-16:0', 'Monday 16:0-22:0', 'Tuesday 12:0-16:0', 'Tuesday 16:0-22:0', 'Wednesday 12:0-16:0', 'Wednesday 16:0-23:0', 'Thursday 12:0-16:0', 'Thursday 16:0-0:0', 'Friday 12:0-16:0', 'Friday 16:0-0:0', 'Saturday 10:0-16:0', 'Saturday 16:0-0:0', 'Sunday 10:0-16:0', 'Sunday 16:0-22:0']""",1,33 Yonge Street,179,-79.3768027,43.6474108,M5E 1G4,Italian
The Annex Live,3,3,,B_eq-9vINgR0m1PwgUp5aw,"""['Monday 11:0-2:0', 'Tuesday 11:0-2:0', 'Wednesday 11:0-2:0', 'Thursday 11:0-2:0', 'Friday 11:0-2:0', 'Saturday 9:0-2:0', 'Sunday 9:0-15:30']""",1,296 Brunswick Avenue,3,-79.4069815,43.6653566,M5S,Italian
Veloute Bistro & Catering,3,4,The Beach,zIyqiWYKrCvAdGeWXXBxFw,"""['Monday 17:0-22:0', 'Tuesday 17:0-22:0', 'Wednesday 17:0-22:0', 'Thursday 17:0-22:0', 'Friday 17:0-23:0', 'Saturday 17:0-23:0', 'Sunday 17:0-21:0']""",1,2343 Queen Street E,23,-79.28978168,43.67221837,M4E 1H2,Italian
Alize Catering,3,3,Mount Pleasant and Davisville,l09JfMeQ6ynYs5MCJtrcmQ,"""['Monday 9:0-22:0', 'Tuesday 9:0-22:0', 'Wednesday 9:0-22:0', 'Thursday 9:0-22:0', 'Friday 9:0-22:0', 'Saturday 9:0-22:0', 'Sunday 9:0-22:0']""",0,2459 Yonge St,12,-79.3993388,43.7113993,M4P 2H6,Italian
La Veranda Osteria,3,3,Etobicoke,mA3kz245czbdqAyJMg9BsQ,"""['Monday 11:0-21:30', 'Tuesday 11:0-21:30', 'Wednesday 11:0-21:30', 'Thursday 11:0-21:30', 'Friday 11:0-22:30', 'Saturday 11:0-22:30', 'Sunday 11:0-21:30']""",1,946 Royal York Road,26,-79.5116659,43.6477695,M8X 2E5,Italian
Local Kitchen & Winebar,3,4,Parkdale,sHnN3JliwVWvGX76Odmlbw,"""['Monday 18:0-22:0', 'Tuesday 18:0-22:0', 'Wednesday 18:0-22:0', 'Thursday 18:0-23:0', 'Friday 18:0-23:0', 'Saturday 18:0-23:0', 'Sunday 18:0-22:0']""",1,1710 Queen Street W,55,-79.4451285,43.6389877,M6N,Italian
F'Amelia,3,3.5,Cabbagetown,MLQeuiL9rqOq_rDKGEcU0A,"""['Monday 17:0-22:0', 'Tuesday 17:0-23:0', 'Wednesday 17:0-23:0', 'Thursday 17:0-23:0', 'Friday 17:0-23:0', 'Saturday 17:0-23:0', 'Sunday 17:0-23:0']""",1,12 Amelia Street,83,-79.368594,43.6674629,M4X 1E1,Italian
Chicago Don,3,3,Dovercourt,SLCz2CaXXHJefrB942486w,"""['Monday 17:0-23:0', 'Tuesday 17:0-23:0', 'Wednesday 17:0-23:0', 'Thursday 17:0-23:0', 'Friday 17:0-0:0', 'Saturday 17:0-0:0', 'Sunday 17:0-23:0']""",0,901 Bloor Street W,10,-79.4262935,43.6617522,M6H 1L2,Italian
Trio Ristorante and Pizzeria,3,4,,cDz_5MwEZV1LIkJiIFDpoQ,"""['Tuesday 11:0-23:0', 'Wednesday 11:0-23:0', 'Thursday 11:0-23:0', 'Friday 11:0-23:0', 'Saturday 12:0-0:0', 'Sunday 12:0-0:0']""",1,3239 Yonge Street,28,-79.4028419,43.7288719,M4N 2T5,Italian
Toula Restaurant & Bar,3,2,Harbourfront,jluEI1ZDQDeJlbl-M3YH3Q,"""['Monday 11:30-23:0', 'Tuesday 11:30-23:0', 'Wednesday 11:30-23:0', 'Thursday 11:30-23:0', 'Friday 11:30-23:0', 'Saturday 11:30-23:0', 'Sunday 11:30-23:0']""",1,"""1 Harbour Square, 38th Floor""",142,-79.377079,43.6408581,M5J 1A6,Italian
Zucca Trattoria,3,4,,XH2TZmZt6gzHHpjqk8C6pg,"""['Monday 17:30-22:0', 'Tuesday 17:30-22:0', 'Wednesday 17:30-22:0', 'Thursday 17:30-22:0', 'Friday 17:30-22:0', 'Saturday 17:30-22:0', 'Sunday 17:0-21:30']""",1,2150 Yonge Street,36,-79.3980157,43.7037154,M4S 2A8,Italian
Paese,3,3.5,Entertainment District,6frPvwX14wDH8jju64ewRg,"""['Monday 11:30-0:0', 'Tuesday 11:30-0:0', 'Wednesday 11:30-0:0', 'Thursday 11:30-0:0', 'Friday 11:30-0:0', 'Saturday 11:0-0:0', 'Sunday 11:0-0:0']""",0,333 King Street W,55,-79.39130171,43.64612206,M5V 1J5,Italian
Modus Ristorante,3,3.5,Financial District,A4aqz0pfgMX-votNbSZQDA,"""['Monday 11:30-14:30', 'Monday 17:0-22:30', 'Tuesday 11:30-14:30', 'Tuesday 17:0-22:30', 'Wednesday 11:30-14:30', 'Wednesday 17:0-22:30', 'Thursday 11:30-14:30', 'Thursday 17:0-22:30', 'Friday 11:30-14:30', 'Friday 17:0-22:30']""",1,145 King Street W,18,-79.3841931,43.6474686,M5H 4G2,Italian
Vita Sociale,3,2,Yonge and Eglinton,0XZkaHXjxHAhJc_jPtoJCA,"""['Monday 17:0-2:0', 'Tuesday 17:0-2:0', 'Wednesday 17:0-2:0', 'Thursday 17:0-2:0', 'Friday 17:0-2:0', 'Saturday 17:0-2:0']""",0,2472 Yonge Street,25,-79.3995315,43.7114497,M4P 2H5,Italian
Terroni,3,3.5,Rosedale,XD0LjNuPPwJPsTAHecUh7A,"""['Monday 11:30-22:0', 'Tuesday 11:30-22:0', 'Wednesday 11:30-22:0', 'Thursday 11:30-23:0', 'Friday 11:30-23:0', 'Saturday 11:30-23:0', 'Sunday 11:30-22:0']""",1,1095 Yonge Street,150,-79.39051915,43.68001128,M4W 2L8,Italian
Bravi Ristorante,3,3.5,St. Lawrence,MWTiyj9BY21GSOwYqLkpcQ,"""['Monday 17:30-22:0', 'Tuesday 17:30-22:0', 'Wednesday 12:0-14:30', 'Wednesday 17:30-22:0', 'Thursday 12:0-14:30', 'Friday 12:0-14:30', 'Friday 17:30-22:0', 'Saturday 17:30-22:0']""",1,40 Wellington Street E,13,-79.3749505,43.6484769,M5E 1C7,Italian
Enoteca Sociale,3,4,Dufferin Grove,3glVZZh_vyZH1VvPU0307A,"""['Monday 17:0-23:0', 'Tuesday 17:0-23:0', 'Wednesday 17:0-23:0', 'Thursday 17:0-23:0', 'Friday 17:0-23:0', 'Saturday 17:0-23:0', 'Sunday 17:0-23:0']""",1,1288 Dundas St W,233,-79.4257125,43.6496915,M6J 1X7,Italian
La Risata Ristorante,3,3,,Xfp4-gMS2HZhISIxw5HnvA,"""['Monday 11:30-15:0', 'Tuesday 11:30-21:0', 'Wednesday 11:30-21:0', 'Thursday 11:30-21:0', 'Friday 11:30-22:30', 'Saturday 11:30-22:30']""",1,2777 Steeles Avenue W,15,-79.4904296,43.7821596,M3J 3K5,Italian
Doppio Zero,3,3.5,,_lW7i2zGl54a6XtumbtZFQ,,1,530 Eglinton Avenue W,22,-79.4142361,43.7035418,M5N 2K5,Italian
Luci Restaurant,3,4,Etobicoke,9Jn6MJZMz2R6rcszqmXDqg,"""['Monday 17:0-23:0', 'Tuesday 17:0-23:0', 'Wednesday 17:0-23:0', 'Thursday 17:0-23:0', 'Friday 17:0-23:0', 'Saturday 17:0-23:0']""",1,664 The Queensway,25,-79.4983143,43.6274536,M8Y 1K6,Italian
Vertical Restaurant & Bar,3,4,Financial District,By2DQwaG2EiOxsuHnS8FoA,"""['Monday 11:30-0:0', 'Tuesday 11:30-0:0', 'Wednesday 11:30-0:0', 'Thursday 11:30-0:0', 'Friday 11:30-0:0']""",0,100 King Street W,34,-79.3817439,43.6486362,M5X 1E1,Italian
Obik_ Mozzarella Bar,3,3,Downtown Core,NBMCSTtayMJJisWSZ6WuwA,"""['Monday 7:0-23:0', 'Tuesday 7:0-23:0', 'Wednesday 7:0-23:0', 'Thursday 7:0-23:0', 'Friday 7:0-0:0', 'Saturday 11:0-0:0']""",0,"""Brookfield Place Mall, 181 Bay Street""",24,-79.3793812,43.6472077,M5J 2T3,Italian
Green Eggplant Restaurant,3,4,,FDxnnImJ-Q0CXRwGVJ1gig,,0,514 Eglinton Ave W,11,-79.4135891,43.7036821,M5N 1A5,Italian
Big Ragu,3,3,,527O5H26A0lFtCHO6zEh8w,,1,1338 Lansdowne Ave,31,-79.4506128,43.6759926,M6H 3Z8,Italian
Taverna Mercatto,3,4,,D1lAVtlav4atQTJnIvtcpw,,1,120 Bremner Boulevard,76,-79.38276015,43.64267221,M5J 3A6,Italian
L'Unita,3,4.5,The Annex,sa1ZAswk7kEQfg9Mb6iQwQ,"""['Tuesday 17:30-22:0', 'Wednesday 17:30-22:0', 'Thursday 17:30-22:0', 'Friday 17:30-23:0', 'Saturday 17:30-23:0']""",1,134 Avenue Road,72,-79.3967073,43.6743735,M5R 2H6,Italian
