name,price_range,stars,neighborhood,business_id,hours,is_open,address,review_count,longitude,latitude,postal_code,cuisine
Fry Haus,1,4.5,Cabbagetown,sCxrjkhpj2MIrUtgh-64Mw,"""""""['Monday 11:0-21:0', 'Tuesday 11:0-21:0', 'Wednesday 11:0-21:0', 'Thursday 11:0-21:0', 'Friday 11:0-21:0', 'Saturday 12:0-21:0']""""""",0,"""""""296 Gerrard Street E, Suite A""""""",9,-79.36673889,43.66209232,M5A 2G7,Taiwanese
Yummy Zone,1,3.5,Discovery District,sXKDj1yjfWkwhx5AxrgdBw,"""""""['Monday 11:0-20:30', 'Tuesday 11:0-20:30', 'Wednesday 11:0-20:30', 'Thursday 11:0-20:30', 'Friday 11:0-20:30', 'Saturday 12:0-20:0', 'Sunday 12:0-20:0']""""""",1,895 Bay Street,13,-79.3863982,43.6631782,M5S 3K6,Taiwanese
Bubble Republic on Bay,1,3.5,Downtown Core,_PqvLxLW1uZJlJZzGMWErQ,"""""""['Monday 12:0-23:0', 'Tuesday 12:0-23:0', 'Wednesday 12:0-23:0', 'Thursday 12:0-23:0', 'Friday 12:0-23:0', 'Saturday 12:0-23:0', 'Sunday 12:0-23:0']""""""",1,637B Bay Street,20,-79.3838421,43.6569163,M5G 1M7,Taiwanese
Flaming Bull,3,3,The Annex,BwbPzuEuIN_oFmNRJIgHlg,"""""""['Monday 17:0-21:30', 'Tuesday 17:0-21:30', 'Wednesday 17:0-21:30', 'Thursday 17:0-21:30', 'Friday 17:0-22:0', 'Saturday 12:0-22:0', 'Sunday 12:0-21:30']""""""",1,378 Bloor Street W,29,-79.4062449,43.6662923,M5S 1X2,Taiwanese
Chopsticks House,2,4,Downtown Core,Veh0kB2ErSaKsH5v6o7nwQ,"""""""['Monday 11:0-22:0', 'Tuesday 11:0-22:0', 'Wednesday 11:0-22:0', 'Thursday 11:0-22:0', 'Friday 11:0-22:0', 'Saturday 11:0-22:0', 'Sunday 11:0-22:0']""""""",1,6B Wellesley Street W,14,-79.3851073,43.664923,M4Y 1E7,Taiwanese
Dessert Guru,2,2.5,Downtown Core,ln_sQpaOjtAW5bm5SIp6rw,"""""""['Monday 12:0-23:30', 'Tuesday 12:0-23:30', 'Wednesday 12:0-23:30', 'Thursday 12:0-23:30', 'Friday 12:0-23:30', 'Saturday 12:0-23:30', 'Sunday 12:0-23:30']""""""",1,"""""""29 Saint Joesph Street, Suite B""""""",7,-79.3868721,43.6657952,M4Y 1J9,Taiwanese
Mabu Station,2,3,Willowdale,XmltVNUCIIU0wJoRfdxscw,"""""""['Monday 12:0-1:0', 'Tuesday 12:0-1:0', 'Wednesday 12:0-1:0', 'Thursday 12:0-1:0', 'Friday 12:0-2:0', 'Saturday 12:0-2:0', 'Sunday 12:0-1:0']""""""",1,5460 Yonge Street,23,-79.4145612,43.7772696,M2N 5S1,Taiwanese
Chatime - Yonge & College,1,3.5,Downtown Core,YHXczxm4W3BkGT-z7vZBBw,"""""""['Monday 11:0-0:0', 'Tuesday 11:0-0:0', 'Wednesday 11:0-0:0', 'Thursday 11:0-0:0', 'Friday 11:0-0:0', 'Saturday 11:0-0:0', 'Sunday 11:0-0:0']""""""",1,439 Yonge Street,31,-79.3827591,43.6610723,M5B 1T3,Taiwanese
Real Fruit Bubble Tea,1,2.5,Scarborough,vOdY5xomz8nNX756zNYQxQ,"""""""['Monday 10:0-21:0', 'Tuesday 10:0-21:0', 'Wednesday 10:0-21:0', 'Thursday 10:0-21:0', 'Friday 10:0-21:0', 'Saturday 9:30-18:0', 'Sunday 12:0-17:0']""""""",1,85 Ellesmere Road,3,-79.3132716,43.75807896,M1R 4C1,Taiwanese
Cha Me Cha,1,2.5,Willowdale,tmxFZfbJO0ZF7oYm2B3VMg,"""""""['Monday 15:0-0:0', 'Tuesday 15:0-0:0', 'Wednesday 15:0-0:0', 'Thursday 15:0-0:0', 'Friday 15:0-0:0', 'Saturday 15:0-0:0', 'Sunday 15:0-0:0']""""""",0,5369 Yonge Street,15,-79.4143877,43.7755208,M2N 5R6,Taiwanese
Moo Beef Noodle House,1,3,Scarborough,cilz3zHyydAG2kYjbNdrFg,"""""""['Monday 11:0-22:0', 'Tuesday 11:0-22:0', 'Wednesday 11:0-22:0', 'Thursday 11:0-22:0', 'Friday 11:0-23:0', 'Saturday 11:0-23:0', 'Sunday 11:0-22:0']""""""",0,633 Silver Star Boulevard,9,-79.299855,43.824546,M1V 5N1,Taiwanese
Tealicious Tea House,1,3,Scarborough,KvfaPsLlpOZAF276Lpvm4w,"""""""['Monday 13:0-0:0', 'Tuesday 13:0-0:0', 'Wednesday 13:0-0:0', 'Thursday 13:0-0:0', 'Friday 13:0-1:30', 'Saturday 13:0-1:30', 'Sunday 13:0-0:0']""""""",1,"""""""3278 Midland Avenue, Unit D110""""""",34,-79.2878441,43.8058597,M1V 4A1,Taiwanese
Sugar Marmalade,1,3,Willowdale,bejxx0XrZ6Ogv-o-3InELA,"""""""['Monday 12:0-2:0', 'Tuesday 12:0-2:0', 'Wednesday 12:0-2:0', 'Thursday 12:0-2:0', 'Friday 12:0-3:0', 'Saturday 12:0-3:0', 'Sunday 12:0-2:0']""""""",1,5322 Yonge Street,102,-79.41402551,43.77328447,M2N 2N1,Taiwanese
Mean Bao,1,3.5,Niagara,OUB81Dpb6m7HjW4ZmeSlmw,"""""""['Monday 11:0-21:0', 'Tuesday 11:0-21:0', 'Wednesday 11:0-21:0', 'Thursday 11:0-23:0', 'Friday 11:0-23:0', 'Saturday 11:0-23:0', 'Sunday 11:0-21:0']""""""",1,167 Bathurst Street,61,-79.4037555,43.6465917,M5V,Taiwanese
Hot Star Large Fried Chicken,2,3.5,Downtown Core,e6UDJBEIoXBbnXtdwkqIGA,"""""""['Monday 11:0-23:0', 'Tuesday 11:0-23:0', 'Wednesday 11:0-23:0', 'Thursday 11:0-23:0', 'Friday 11:0-23:0', 'Saturday 11:0-23:0', 'Sunday 11:0-23:0']""""""",1,374A Yonge Street,153,-79.3822447,43.6588052,M5B 1S6,Taiwanese
Comebuy Teashop,3,3.5,Entertainment District,nc2ToNeakcNlFOggSuh0SQ,"""""""['Monday 11:0-23:0', 'Tuesday 11:0-23:0', 'Wednesday 11:0-23:0', 'Thursday 11:0-23:0', 'Friday 11:0-23:0', 'Saturday 11:0-23:0', 'Sunday 11:0-23:0']""""""",0,238 Queen Street W,9,-79.39020809,43.65005489,M5V 1Z9,Taiwanese
TenRen Tea,1,2,Willowdale,3MGBjyl6zMdIx5idpgDciQ,,1,"""""""5095 Yonge Street, Unit A2""""""",3,-79.4121421,43.7687386,M2N 6Z6,Taiwanese
Tí©,2,4,Ossington Strip,zHNk2BnANwkvHvaXD7yYsg,"""""""['Monday 16:0-23:0', 'Tuesday 11:0-22:0', 'Wednesday 11:0-22:0', 'Thursday 11:0-23:0', 'Friday 11:0-0:0', 'Saturday 11:0-0:0', 'Sunday 11:0-22:0']""""""",1,70 Ossington Avenue,16,-79.419686,43.64576,M6J 2Y7,Taiwanese
Sharetea,1,4,Willowdale,#NAME?,"""""""['Monday 13:0-0:0', 'Tuesday 13:0-0:0', 'Wednesday 13:0-0:0', 'Thursday 13:0-0:0', 'Friday 12:0-0:30', 'Saturday 12:0-0:30', 'Sunday 12:0-0:0']""""""",1,"""""""15 Northtown Way, Unit 22""""""",43,-79.413432,43.775339,M2N 7A2,Taiwanese
Sharetea,1,4,Scarborough,Rr3ZlPEo70TxT2e_A47y9g,"""""""['Monday 12:0-23:0', 'Tuesday 12:0-23:0', 'Wednesday 12:0-23:0', 'Thursday 12:0-23:0', 'Friday 12:0-0:0', 'Saturday 12:0-0:0', 'Sunday 12:0-23:0']""""""",1,"""""""3272 Midland Avenue, Unit B-117""""""",4,-79.2879875,43.8060376,M1V,Taiwanese
Mabu Station,2,2.5,Willowdale,uUq0bMEjt202bMbRHkIcNA,"""""""['Monday 12:0-3:0', 'Tuesday 12:0-3:0', 'Wednesday 12:0-3:0', 'Thursday 12:0-3:0', 'Friday 12:0-4:0', 'Saturday 12:0-4:0', 'Sunday 12:0-3:0']""""""",1,5455-5457 Yonge Street,69,-79.4147657,43.77747195,M2N 5S1,Taiwanese
Kanpai Snack Bar,2,3.5,Cabbagetown,BsFAotQQE1yRVVJEDADaJw,"""""""['Monday 17:0-0:0', 'Tuesday 17:0-0:0', 'Wednesday 17:0-0:0', 'Thursday 17:0-0:0', 'Friday 17:0-0:0', 'Saturday 11:0-0:0', 'Sunday 11:0-0:0']""""""",1,252 Carlton Street,131,-79.36815343,43.66432357,M5A 2L3,Taiwanese
Chatime - Dundas,1,4,Discovery District,ZDDzKXN_JXe7694zePRuTQ,"""""""['Monday 11:0-0:0', 'Tuesday 11:0-0:0', 'Wednesday 11:0-0:0', 'Thursday 11:0-0:0', 'Friday 11:0-1:0', 'Saturday 11:0-1:0', 'Sunday 11:0-0:0']""""""",1,132 Dundas Street W,263,-79.384737,43.6556573,M5G 1C3,Taiwanese
Wiki Star,1,3.5,Willowdale,0LsH3PYy7aemkjgQTI2MVQ,"""""""['Monday 12:0-22:0', 'Tuesday 12:0-22:0', 'Wednesday 12:0-22:0', 'Thursday 12:0-22:0', 'Friday 12:0-22:0', 'Saturday 12:0-22:0']""""""",1,"""""""15 Northtown Way, Suite 20""""""",23,-79.4133778,43.774899,M2N,Taiwanese
Chatime,1,3.5,University of Toronto,KnV-IaFLBNR4aT7c_voXjQ,"""""""['Monday 11:0-23:0', 'Tuesday 11:0-23:0', 'Wednesday 11:0-23:0', 'Thursday 11:0-23:0', 'Friday 11:0-0:0', 'Saturday 12:0-0:0', 'Sunday 12:0-23:0']""""""",1,337 Bloor Street W,37,-79.40065328,43.66725632,M5S 1W7,Taiwanese
Sang-Ho Seafood Restaurant,2,4,Kensington Market,W9Bh_7mfuUrEAdQBJMVOvA,,1,536 Dundas St W,38,-79.3991357,43.6529547,M5T 1H3,Seafood
Mermaid Fish and Grill House,2,4.5,Scarborough,nD3FyISCri8uLP0NJY5CZA,"""""""['Monday 13:0-22:0', 'Tuesday 13:0-22:0', 'Wednesday 13:0-22:0', 'Thursday 13:0-22:0', 'Friday 12:0-23:0', 'Saturday 12:0-23:0', 'Sunday 12:0-22:0']""""""",1,1748 Lawrence Avenue E,69,-79.30822563,43.74276179,M1R 2Y1,Seafood
The Captain's Boil,2,3.5,Downtown Core,bLtC8xJXkd1b6MT0KjnSvw,"""""""['Monday 11:0-23:0', 'Tuesday 11:0-23:0', 'Wednesday 11:0-23:0', 'Thursday 11:0-23:0', 'Friday 11:0-0:0', 'Saturday 11:0-0:0', 'Sunday 11:0-23:0']""""""",1,476 Yonge St,136,-79.3837258,43.6624099,M5G 1G7,Seafood
Little Fin,2,3.5,Downtown Core,x6PA-2j7LpZAYFo2VojmQQ,"""""""['Monday 8:0-20:0', 'Tuesday 8:0-20:0', 'Wednesday 8:0-20:0', 'Thursday 8:0-20:0', 'Friday 8:0-20:0', 'Saturday 11:0-20:0']""""""",1,4 Temperance Street,128,-79.3791616,43.6510992,M5H 1Y4,Seafood
Jacky's Seafood Restaurant,2,1,Scarborough,zbFtY82_ummK4amkT-M04Q,"""""""['Monday 11:0-1:0', 'Tuesday 11:0-1:0', 'Wednesday 11:0-1:0', 'Thursday 11:0-1:0', 'Friday 11:0-1:0', 'Saturday 11:0-1:0', 'Sunday 11:0-1:0']""""""",1,3380 Midland Avenue,4,-79.29010905,43.80924941,M1V 1R4,Seafood
Fishermans Wharf,2,2.5,Corktown,#NAME?,,0,97 Church Street,17,-79.375132,43.65219,M5C,Seafood
The Captain's Boil,3,3.5,Willowdale,i1Xkm22_96GNVVOXSUoL0A,"""""""['Monday 11:0-0:0', 'Tuesday 11:0-0:0', 'Wednesday 11:0-0:0', 'Thursday 11:0-0:0', 'Friday 11:0-1:0', 'Saturday 11:0-1:0', 'Sunday 11:0-0:0']""""""",1,5313 Yonge St,233,-79.4135718,43.7733186,M2N 5R4,Seafood
Canyon Creek,3,3.5,Etobicoke,vpEeL1NA7rRyu0aD_g313Q,"""""""['Monday 11:30-23:0', 'Tuesday 11:30-0:0', 'Wednesday 11:30-0:0', 'Thursday 11:30-1:0', 'Friday 11:30-1:0', 'Saturday 11:30-1:0', 'Sunday 11:30-22:0']""""""",1,1900 The Queensway,28,-79.5601256,43.6142913,M9C 5H5,Seafood
Mushkaki's,1,4,Etobicoke,#NAME?,"""""""['Monday 11:0-23:0', 'Tuesday 11:0-23:0', 'Wednesday 11:0-23:0', 'Thursday 11:0-23:0', 'Friday 11:0-23:0', 'Saturday 11:0-23:0', 'Sunday 11:0-23:0']""""""",1,145 Rexdale Boulevard,20,-79.5677244,43.7111121,M9W 1P7,Seafood
Olio,2,4,Etobicoke,A8Mw21Wxt4Ao-3aA-a5feQ,"""""""['Monday 6:0-0:0', 'Tuesday 6:0-0:0', 'Wednesday 6:0-0:0', 'Thursday 6:0-0:0', 'Friday 6:0-0:0', 'Saturday 7:0-0:0', 'Sunday 7:0-0:0']""""""",1,801 Dixon Road,22,-79.5863624,43.6878627,M9W 1J5,Seafood
The Happy Hooker,2,3.5,Trinity Bellwoods,cWGk2R8rNw7-X_DpNaBeCQ,"""""""['Tuesday 12:0-0:0', 'Wednesday 12:0-0:0', 'Thursday 12:0-0:0', 'Friday 12:0-0:0', 'Saturday 12:0-0:0', 'Sunday 12:0-0:0']""""""",0,887 Dundas Street W,52,-79.4117604,43.6510281,M6J 2P8,Seafood
King Rustic,2,4,Niagara,6cz8xLR64Iuzpa4NNcFHqg,"""""""['Monday 11:30-22:30', 'Tuesday 11:30-22:30', 'Wednesday 11:30-22:30', 'Thursday 11:30-23:0', 'Friday 11:30-2:0', 'Saturday 15:0-2:0', 'Sunday 17:0-22:0']""""""",1,926 King Street W,31,-79.4110578,43.6424322,M5V 1P5,Seafood
Canyon Creek,2,3.5,Entertainment District,ivbMuKOwwX2B70gFggzT-g,"""""""['Monday 11:30-23:0', 'Tuesday 11:30-23:0', 'Wednesday 11:30-23:0', 'Thursday 11:30-23:0', 'Friday 11:30-0:0', 'Saturday 16:0-0:0', 'Sunday 16:0-22:0']""""""",1,156 Front Street West,115,-79.387243,43.6442751,M5J 2L6,Seafood
Aki Da Japanese Seafood House,2,2.5,The Beach,251cOqWFI9t0udLSdS6SCA,,1,1911 Queen St E,17,-79.3043461,43.6687183,M4L 1H3,Seafood
Len Duckworth's Fish & Chips,2,4,The Danforth,3tqwUw4XWf-RFEtVROZ2ZQ,"""""""['Monday 11:0-20:0', 'Tuesday 11:0-20:0', 'Wednesday 11:0-20:0', 'Thursday 11:0-20:0', 'Friday 11:0-21:0', 'Saturday 11:0-20:0']""""""",1,2638 Danforth Avenue,35,-79.2999797,43.6888245,M4C 1L7,Seafood
The Chase Fish & Oyster,4,4,Downtown Core,t6FCO31z5uYrCM26jCaIaA,"""""""['Monday 11:30-1:0', 'Tuesday 11:30-1:0', 'Wednesday 11:30-1:0', 'Thursday 11:30-1:0', 'Friday 11:30-1:0', 'Saturday 17:0-0:0', 'Sunday 10:30-22:0']""""""",1,10 Temperance Street,244,-79.3793504,43.6510639,M5H 1Y4,Seafood
Chiado,4,4,Dufferin Grove,7HrCELR6uv2HkgL7aT_hcQ,"""""""['Monday 12:0-14:30', 'Monday 17:0-22:0', 'Tuesday 12:0-14:30', 'Tuesday 17:0-22:0', 'Wednesday 12:0-14:30', 'Wednesday 17:0-22:0', 'Thursday 12:0-14:30', 'Thursday 17:0-22:0', 'Friday 12:0-14:30', 'Friday 17:0-22:0', 'Saturday 17:0-22:0', 'Sunday 17:0-22:0']""""""",1,864 College Street,80,-79.42424689,43.65418684,M6H 1A3,Seafood
Urban,3,2.5,Entertainment District,UDKAqeNly36J_VYvxWxnnA,"""""""['Monday 11:30-23:0', 'Tuesday 11:30-23:0', 'Wednesday 11:30-23:30', 'Thursday 11:30-23:30', 'Friday 11:30-0:30', 'Saturday 11:30-0:30', 'Sunday 11:30-23:0']""""""",0,303 King Street W,13,-79.3902727,43.6463659,M5V 1J5,Seafood
Smash Ping Pong Lounge,2,4.5,Riverdale,dvOW0RTqmwQTB_ZmNm2Wag,"""""""['Monday 12:0-23:30', 'Tuesday 12:0-23:30', 'Wednesday 12:0-23:30', 'Thursday 12:0-1:0', 'Friday 12:0-2:0', 'Saturday 12:0-2:0', 'Sunday 12:0-23:30']""""""",1,672 Queen Street E,9,-79.3512793,43.658686,M4M 1G8,Seafood
Miku Toronto,3,4,Harbourfront,0a2O150ytxrDjDzXNfRWkA,"""""""['Monday 11:30-22:30', 'Tuesday 11:30-22:30', 'Wednesday 11:30-22:30', 'Thursday 11:30-22:30', 'Friday 11:30-23:0', 'Saturday 12:0-23:0', 'Sunday 12:0-22:30']""""""",1,"""""""10 Bay Street, Unit 105""""""",265,-79.3773697,43.6412346,M5J 2R8,Seafood
Yumys,1,3.5,Scarborough,gNg1GXdESMs_ChlZKR7TFQ,"""""""['Monday 10:0-0:0', 'Tuesday 10:0-0:0', 'Wednesday 10:0-0:0', 'Thursday 10:0-0:0', 'Friday 10:0-0:0', 'Saturday 11:0-0:0', 'Sunday 11:0-0:0']""""""",0,"""""""3268 Finch Avenue E, Unit 1""""""",6,-79.3167447,43.7965339,M1W 3P7,Seafood
Rol Jui Seafood Restaurant,2,3,Chinatown,G6hnfEg4Iso1-ago1mkr6w,,1,472 Dundas Street W,25,-79.3968442,43.6533122,M5T 1G9,Seafood
The Boil Bar,2,3.5,The Annex,Nxm2hcwZv4T6XVc8ScR2-A,"""""""['Monday 11:0-23:0', 'Tuesday 11:0-23:0', 'Wednesday 11:0-23:0', 'Thursday 11:0-23:0', 'Friday 11:0-0:0', 'Saturday 11:0-0:0', 'Sunday 11:0-23:0']""""""",1,442 Bloor Street W,12,-79.4088284,43.665764,M5S 1X8,Seafood
The Shore Club - Toronto,3,4,Entertainment District,AQJPI5rnkb7pBnBMWtSjvw,"""""""['Monday 11:30-0:0', 'Tuesday 11:30-0:0', 'Wednesday 11:30-0:0', 'Thursday 11:30-0:0', 'Friday 11:30-0:0', 'Saturday 17:0-0:0']""""""",1,155 Wellington Street W,106,-79.38662767,43.64578821,M5V 3H1,Seafood
Momofuku DaishÅç,3,3.5,Financial District,tEfmHuo_dNanyTaC5PyoOQ,"""""""['Monday 11:30-14:0', 'Monday 17:30-22:0', 'Tuesday 11:30-14:0', 'Tuesday 17:30-22:0', 'Wednesday 11:30-14:0', 'Wednesday 17:30-22:0', 'Thursday 11:30-14:0', 'Friday 11:30-14:0', 'Saturday 17:30-23:0', 'Sunday 11:0-14:30']""""""",1,"""""""190 University Avenue Toronto, 3rd Floor""""""",193,-79.3859219,43.6493689,M5H 0A3,Seafood
Very Fair,2,3,Scarborough,lkM72Y21bjBqUGaW7iL7tQ,,1,17 Milliken Boulevard,63,-79.29350919,43.80356778,M1V 1V3,Seafood
Deep Blue Fish & Chips,1,3.5,Riverdale,aFzKjg_Q_k8w5Rjh0x8yVQ,,0,749 Broadview Ave,6,-79.3585217,43.6758624,M4K 2P6,Seafood
FORTY2 Supperclub,2,2,Liberty Village,fZIrPIK0RBEN2OzwUhi71Q,,1,42 Mowat Avenue,16,-79.4256737,43.6369967,M6K 3K4,Seafood
Hoof Raw Bar,3,3.5,Little Italy,T8koXEIE3oSKbClme8o9Pw,,0,928 Dundas Street W,13,-79.4132797,43.6509775,M6J 1W3,Seafood
Hopgoods Foodliner,3,4,High Park,zJzkL4VHHksVVGepR1IAGw,"""""""['Monday 17:30-22:0', 'Wednesday 5:30-22:0', 'Thursday 17:30-22:0', 'Friday 17:30-23:0', 'Saturday 17:30-23:0', 'Sunday 11:0-15:0', 'Sunday 17:30-22:0']""""""",1,325 Roncesvalles Avenue,123,-79.4499788,43.648778,M6R 2M6,Seafood
Tom Jones Steakhouse & Seafood,3,4,St. Lawrence,pucWlGXJZ4kdAxQN2jkIpA,"""""""['Monday 11:30-0:0', 'Tuesday 11:30-0:0', 'Wednesday 11:30-0:0', 'Thursday 11:30-0:0', 'Friday 11:30-0:0', 'Saturday 17:0-0:30', 'Sunday 17:0-22:30']""""""",1,17 Leader Lane,24,-79.3754015,43.6491389,M5E 1L8,Seafood
Lobster King Seafood Restaurant,3,3,Scarborough,GKN6OdLqCCWx_8B1KaHL1Q,,1,4919 Steeles Avenue E,20,-79.2913137,43.82700432,L3R 0A1,Seafood
Bí¢ton Rouge Steakhouse & Bar,2,2.5,Entertainment District,1J7B86tBk2nIzWMoGFSq0w,"""""""['Monday 11:0-22:0', 'Tuesday 11:0-23:0', 'Wednesday 11:0-23:0', 'Thursday 11:0-23:0', 'Friday 11:0-0:0', 'Saturday 11:0-0:0', 'Sunday 11:0-22:0']""""""",1,277 Front Street W,57,-79.38841225,43.64331426,M5V 2X4,Seafood
The Captain's Boil,2,4,Mount Pleasant and Davisville,fy6srT4KpbE7ICBLdypEuQ,"""""""['Monday 11:0-23:0', 'Tuesday 11:0-23:0', 'Wednesday 11:0-23:0', 'Thursday 11:0-23:0', 'Friday 11:0-0:0', 'Saturday 11:0-0:0', 'Sunday 11:0-23:0']""""""",1,1620 Bayview Ave,20,-79.3757109,43.7064024,M4G 3B7,Seafood
Starfish Oyster Bed and Grill,3,3.5,Corktown,0V1cInGtsWicRkgoNx7imQ,"""""""['Monday 12:0-15:0', 'Monday 17:0-23:0', 'Tuesday 12:0-15:0', 'Tuesday 17:0-23:0', 'Wednesday 12:0-15:0', 'Wednesday 17:0-23:0', 'Thursday 12:0-15:0', 'Friday 12:0-15:0', 'Friday 17:0-23:0', 'Saturday 17:0-23:0', 'Sunday 16:0-21:0']""""""",0,100 Adelaide Street E,65,-79.3737704,43.6515704,M5C 1K9,Seafood
Red Lobster,2,3,Downtown Core,fD33UMpiCJcWWXmNKYKANQ,"""""""['Monday 11:0-22:0', 'Tuesday 11:0-22:0', 'Wednesday 11:0-22:0', 'Thursday 11:0-22:0', 'Friday 11:0-23:0', 'Saturday 11:0-23:0', 'Sunday 11:0-22:0']""""""",1,20 Dundas Street West,99,-79.38346724,43.65606679,M5G 2C2,Seafood
The West Hill Wine Bar,3,3.5,Scarborough,Qg4Ou9YwqXf10zxQGrw0sA,"""""""['Tuesday 11:30-22:0', 'Wednesday 11:30-22:0', 'Thursday 11:30-22:0', 'Friday 11:30-22:0', 'Saturday 11:30-22:0']""""""",0,"""""""4637 Kingston Road, Unit 1""""""",11,-79.1774638,43.7745227,M1E 2P8,Seafood
Peppercorn Steak and Seafood,2,3,Scarborough,Lr2iWJb9GSxhgrXdt3hJXQ,"""""""['Monday 9:0-22:0', 'Tuesday 9:0-22:0', 'Wednesday 9:0-22:0', 'Thursday 9:0-22:0', 'Friday 9:0-23:0', 'Saturday 9:0-23:0', 'Sunday 9:0-22:0']""""""",0,2290 Markham Road,8,-79.243907,43.812218,M1B 2W4,Seafood
Fishman Lobster Clubhouse Restaurant,3,4,Scarborough,_xAJZOKBMPOe47p1MphB2w,"""""""['Monday 11:0-23:0', 'Tuesday 11:0-23:0', 'Wednesday 11:0-23:0', 'Thursday 11:0-23:0', 'Friday 11:0-23:0', 'Saturday 11:0-23:0', 'Sunday 11:0-23:0']""""""",1,680 Silver Star Boulevard,288,-79.30079543,43.82423358,M1V 4S5,Seafood
The Big Fish,2,4,Alexandra Park,5Qcp-YbmUYHJ7eIvVDq1Nw,,0,406 Queen Street W,11,-79.3973128,43.6485588,M5V,Seafood
Wah Sing Seafood Restaurant,2,3.5,Downtown Core,xL-Ckvr8k8vEBJxC1wsCqQ,"""""""['Monday 11:30-23:0', 'Tuesday 11:30-23:0', 'Wednesday 11:30-23:0', 'Thursday 11:30-23:0', 'Friday 11:30-23:0', 'Saturday 11:30-23:0', 'Sunday 11:30-23:0']""""""",1,47 Baldwin Street,58,-79.3938328,43.6558635,M5T 1L1,Seafood
Ritz Bar,2,4,Entertainment District,_fWZH1p8B_lwK4feQgtWkQ,"""""""['Monday 17:0-0:0', 'Tuesday 17:0-0:0', 'Wednesday 17:0-1:0', 'Thursday 17:0-1:0', 'Friday 17:0-1:0', 'Saturday 17:0-1:0']""""""",1,"""""""Ritz Carlton, 181 Wellington St West""""""",4,-79.3877892,43.6456016,M5V 3G7,Seafood
Ufficio,3,4.5,Dufferin Grove,XmfiEDGV1V1mqeEP7SurTg,"""""""['Tuesday 18:0-22:0', 'Wednesday 18:0-22:0', 'Thursday 18:0-22:0', 'Friday 17:0-23:0', 'Saturday 17:0-23:0', 'Sunday 18:0-2:0']""""""",1,1214 Dundas Street W,26,-79.4230537,43.6494871,M6J 3B1,Seafood
Estiatorio VOLOS,3,4,Financial District,C6vH0qzmcerMkiJy3VO9qA,"""""""['Monday 11:30-22:0', 'Tuesday 11:30-22:0', 'Wednesday 11:30-22:0', 'Thursday 11:30-22:0', 'Friday 11:30-22:0', 'Saturday 17:0-22:30']""""""",1,133 Richmond Street W,207,-79.3848513,43.6500952,M5H 2L3,Seafood
The Keg Steakhouse + Bar - York Street,3,4,Financial District,gy5pr5bFAjOL5rERSdMCLg,"""""""['Monday 11:0-1:0', 'Tuesday 11:0-1:0', 'Wednesday 11:0-1:0', 'Thursday 11:0-2:0', 'Friday 11:0-2:0', 'Saturday 16:0-2:0', 'Sunday 16:0-0:0']""""""",1,165 York Street,165,-79.3839695,43.6499821,M5H 3R8,Seafood
Reds Midtown Tavern,2,3.5,Ryerson,xyAbFNEIFSy_OKNptyzCmg,"""""""['Monday 11:30-1:0', 'Tuesday 11:30-1:0', 'Wednesday 11:30-1:0', 'Thursday 11:30-2:0', 'Friday 11:30-2:0', 'Saturday 11:30-2:0', 'Sunday 11:30-1:0']""""""",1,"""""""382 Yonge Street, Unit 6""""""",131,-79.3821131,43.6590888,M5B 1S8,Seafood
Redfish,3,4,Dufferin Grove,O5vhV8rQi8Vr4TY4vKHsKA,"""""""['Tuesday 18:0-22:0', 'Wednesday 18:0-22:0', 'Thursday 18:0-22:30', 'Friday 18:0-23:0', 'Saturday 18:0-23:0', 'Sunday 11:0-22:0']""""""",0,890 College Street,19,-79.4250379,43.6539846,M6H 1A3,Seafood
Boil King,2,4,Entertainment District,Dvhg57y-SOcKty6WTG1XDw,"""""""['Monday 11:0-23:0', 'Tuesday 11:0-23:0', 'Wednesday 11:0-23:0', 'Thursday 11:0-23:0', 'Friday 11:0-23:0', 'Saturday 16:0-23:0', 'Sunday 16:0-23:0']""""""",0,333 King Street W,18,-79.3911778,43.646035,M5V 1J5,Seafood
Wah Too,2,3.5,Downtown Core,0Mhw1lD_Zwsv4Vo6oQrPWA,"""""""['Monday 11:0-23:0', 'Tuesday 11:0-23:0', 'Wednesday 11:0-23:0', 'Thursday 11:0-23:0', 'Friday 11:0-5:0', 'Saturday 14:0-5:0', 'Sunday 14:0-23:0']""""""",1,58 Centre Avenue,13,-79.3870808,43.6549211,M5G 1R5,Seafood
Grandeur Palace,2,2.5,Scarborough,#NAME?,"""""""['Monday 9:0-22:30', 'Tuesday 9:0-22:30', 'Wednesday 9:0-22:30', 'Thursday 9:0-22:30', 'Friday 9:0-23:0', 'Saturday 9:0-23:0', 'Sunday 9:0-23:0']""""""",1,"""""""2301 Brimley Road, Unit 128""""""",14,-79.2708692,43.7977931,M1S 3L6,Seafood
King Lobster,1,3,Chinatown,zw74kL1IvT65yRvNLx5UxA,,0,358 Spadina Avenue,21,-79.3990919,43.6546169,M5T 2G4,Seafood
Pearl Diver,2,4,Corktown,trKyIRyjKqVSZmcU0AnICQ,"""""""['Monday 16:0-23:0', 'Tuesday 12:0-23:0', 'Wednesday 12:0-0:0', 'Thursday 12:0-2:0', 'Friday 12:0-2:0', 'Saturday 11:0-2:0', 'Sunday 11:0-23:0']""""""",1,100 Adelaide Street E,320,-79.3737704,43.6515704,M5C 1K9,Seafood
King Crab Seafood Restaurant,2,5,Chinatown,Ib-WbHVHp_e1PZnU0P6JfQ,"""""""['Monday 11:0-23:0', 'Tuesday 11:0-23:0', 'Wednesday 11:0-23:0', 'Thursday 11:0-23:0', 'Friday 11:0-0:0', 'Saturday 11:0-0:0', 'Sunday 11:0-0:0']""""""",1,405 Dundas Street W,4,-79.3947562,43.6533183,M5T 1G6,Seafood
Mike's Fish & Chips,1,3,The Danforth,GtC9soKnY-JhprZ4z6nUaQ,"""""""['Tuesday 11:0-20:0', 'Wednesday 11:0-20:0', 'Thursday 11:0-20:0', 'Friday 11:0-20:0', 'Saturday 11:0-19:0']""""""",1,2162 Danforth Avenue,6,-79.310629,43.6863262,M4C 1K3,Seafood
Ardo Restaurant,3,4,Corktown,oE1EuKY2GmpfIiSGy3YmGw,"""""""['Monday 11:0-0:0', 'Tuesday 11:0-0:0', 'Wednesday 11:0-0:0', 'Thursday 11:0-0:0', 'Friday 11:0-0:0', 'Saturday 11:0-0:0']""""""",1,243 King Street E,27,-79.3684701,43.6511417,M5A 1J9,Seafood
Hoki Pokí©,2,4,Yorkville,FYmWvvhqptkmJ1zOFQhukg,"""""""['Monday 11:0-19:30', 'Tuesday 11:0-19:30', 'Wednesday 11:0-19:30', 'Thursday 11:0-19:30', 'Friday 11:0-19:30', 'Saturday 11:0-17:0']""""""",1,946 Yonge Street,20,-79.38872885,43.67463109,M4W 2J2,Seafood
Seven Lives Tacos Y Mariscos,1,4.5,Kensington Market,iGEvDk6hsizigmXhDKs2Vg,"""""""['Monday 12:0-20:0', 'Tuesday 12:0-20:0', 'Wednesday 12:0-20:0', 'Thursday 12:0-20:0', 'Friday 12:0-20:0', 'Saturday 12:0-20:0', 'Sunday 12:0-20:0']""""""",1,69 Kensington Avenue,736,-79.40186799,43.65422072,M5T 2K2,Seafood
Maple Leaf House,2,2.5,Etobicoke,67hgX03yotM6MUiKI99rhQ,"""""""['Monday 11:0-1:0', 'Tuesday 11:0-1:0', 'Wednesday 11:0-1:0', 'Thursday 11:0-1:0', 'Friday 11:0-1:0', 'Saturday 11:0-1:0', 'Sunday 11:0-1:0']""""""",1,2749 Lake Shore Boulevard W,6,-79.498597,43.6019054,M8V 1H2,Seafood
Ilhas De Bruma,2,4,Brockton Village,JrD90K-V1tfPWbWjPgSXmA,"""""""['Tuesday 12:0-22:0', 'Wednesday 12:0-22:0', 'Thursday 12:0-22:0', 'Friday 12:0-22:0', 'Saturday 12:0-22:0', 'Sunday 12:0-22:0']""""""",1,1136 College Street W,8,-79.433657,43.652334,M6H 1B5,Seafood
The Boil Bar,2,4,Downtown Core,qMqCiVvkylYxPQu5dBbDAw,"""""""['Monday 11:0-23:0', 'Tuesday 11:0-23:0', 'Wednesday 11:0-23:0', 'Thursday 11:0-23:0', 'Friday 11:0-0:0', 'Saturday 11:0-0:0', 'Sunday 11:0-23:0']""""""",1,664 Yonge Street,22,-79.3856137,43.6671047,M4Y 2A6,Seafood
Joso's,3,4,Summer Hill,K3NW8TEu4QRQvFvHer8v4A,"""""""['Monday 11:30-14:30', 'Monday 17:30-23:0', 'Tuesday 11:30-14:30', 'Tuesday 17:30-23:0', 'Wednesday 11:30-14:30', 'Wednesday 17:30-23:0', 'Thursday 11:30-14:30', 'Thursday 17:30-23:0', 'Friday 11:30-14:30', 'Friday 17:30-23:0', 'Saturday 17:30-23:0']""""""",1,202 Davenport Road,102,-79.3961142,43.6751157,M5R 1J2,Seafood
Da Fu Seafood Cuisine Î__ç_è,1,3,Scarborough,dJnF_GUWdoX3tUucpKbYMg,"""""""['Monday 8:0-23:0', 'Tuesday 8:0-23:0', 'Wednesday 8:0-23:0', 'Thursday 8:0-23:0', 'Friday 8:0-23:0', 'Saturday 8:0-23:0', 'Sunday 8:0-23:0']""""""",1,"""""""5651 Steeles Avenue E, Unit 1-3""""""",48,-79.2663275,43.8317208,M1V 5P6,Seafood
Zee Grill Seafood Restaurant & Oyster Bar,3,4,Mount Pleasant and Davisville,ZwURbn4AVHxSUL6iDwjk5A,"""""""['Tuesday 17:30-22:0', 'Wednesday 17:30-22:0', 'Thursday 17:30-22:0', 'Friday 17:30-22:0', 'Saturday 17:30-22:0']""""""",1,641 Mount Pleasant Road,23,-79.3887615,43.7049064,M4S 2M9,Seafood
Fishermans Wharf Restaurants,3,1.5,Financial District,oPKrcIGMveUao1xoOPW_eQ,,0,69 Richmond Street W,12,-79.3821014,43.6509161,M5H 1Z4,Seafood
Buster's Sea Cove,2,3.5,St. Lawrence,RADloW1UROUn4FJFU4JJNg,"""""""['Tuesday 8:0-18:0', 'Wednesday 8:0-18:0', 'Thursday 8:0-18:0', 'Friday 8:0-19:0', 'Saturday 5:0-17:0']""""""",1,93 Front Street E,219,-79.371958,43.649687,M5E 1C3,Seafood
9 Restaurant,2,4,Parkdale,Qtb4dHWSxOv8RjgBWrzukQ,"""""""['Monday 11:45-0:0', 'Tuesday 11:45-0:0', 'Wednesday 11:45-0:0', 'Thursday 11:45-1:0', 'Friday 11:45-2:0', 'Saturday 17:0-2:0', 'Sunday 17:0-0:0']""""""",1,9 Roncesvalles Avenue,30,-79.4462367,43.639124,M6R 2K2,Seafood
Hua Sang Seafood Restaurant,2,3.5,Downtown Core,MWvfffAggIKAV8pBfi-Gyw,"""""""['Monday 11:30-22:0', 'Tuesday 11:30-22:0', 'Wednesday 11:30-22:0', 'Thursday 11:30-22:0', 'Friday 11:30-23:0', 'Saturday 11:30-23:0', 'Sunday 11:30-22:0']""""""",1,43 Baldwin Street,38,-79.3937013,43.6557848,M5T 1Y9,Seafood
Taste of China,2,3.5,Chinatown,_Ss4d4dYzehTmWJGpkqL7w,"""""""['Monday 11:30-4:0', 'Tuesday 11:30-4:0', 'Wednesday 11:30-4:0', 'Thursday 11:30-4:0', 'Friday 11:30-5:0', 'Saturday 11:30-5:0', 'Sunday 11:30-4:0']""""""",1,338 Spadina Ave,85,-79.3988128,43.6540394,M5T 2G2,Seafood
Big Daddy's Bourbon Street Bistro & Oyster Bar,2,3.5,Entertainment District,kLw_FmSiEqYH-MtFhDIUFQ,"""""""['Monday 11:30-23:0', 'Tuesday 11:30-1:0', 'Wednesday 11:30-1:0', 'Thursday 11:30-1:0', 'Friday 11:30-1:0', 'Saturday 11:30-1:0', 'Sunday 11:30-23:0']""""""",0,212 King Street W,131,-79.3864714,43.647499,M5H 1K5,Seafood
Canyon Creek,2,3.5,Etobicoke,fLxn7nVQzESaIqrFLsjEbQ,"""""""['Monday 11:0-1:0', 'Tuesday 11:0-1:0', 'Wednesday 11:0-1:0', 'Thursday 11:0-1:0', 'Friday 11:0-1:0', 'Saturday 16:0-1:0', 'Sunday 16:0-23:0']""""""",1,25 Carlson Court.,44,-79.5843113,43.6893282,M9W 6A2,Seafood
The Captain's Boil,2,5,Queen Street West,agWZA6ajLvu6MfFySNBzZw,"""""""['Monday 11:0-0:0', 'Tuesday 11:0-0:0', 'Wednesday 11:0-0:0', 'Thursday 11:0-0:0', 'Friday 11:0-1:0', 'Saturday 11:0-1:0', 'Sunday 11:0-0:0']""""""",1,226 Queen Street W,4,-79.3899687,43.6503692,M5T 1V5,Seafood
Market Street Catch,2,3.5,St. Lawrence,aPwWn5KBNMOEYjlYwXRORw,"""""""['Monday 11:0-15:0', 'Tuesday 11:0-21:0', 'Wednesday 11:0-21:0', 'Thursday 11:0-21:0', 'Friday 11:0-22:0', 'Saturday 11:0-22:0', 'Sunday 11:0-21:0']""""""",1,14 Market Street,86,-79.3719269,43.648537,M5E 1C3,Seafood
The Peartree Restaurant,2,3.5,Cabbagetown,uq9fF4kFSx1pjRZj_FEazw,"""""""['Monday 11:0-23:0', 'Tuesday 11:0-23:0', 'Wednesday 11:0-23:0', 'Thursday 11:0-23:0', 'Friday 11:0-23:0', 'Saturday 10:0-23:0', 'Sunday 10:0-23:0']""""""",1,507 Parliament Street,50,-79.367999,43.665052,M4X 1P3,Seafood
Bí¢ton Rouge Steakhouse & Bar,3,3,Scarborough,usGow17X8F4qER7kNPBXzg,"""""""['Monday 11:0-22:0', 'Tuesday 11:0-22:0', 'Wednesday 11:0-22:0', 'Thursday 11:0-22:0', 'Friday 11:0-0:0', 'Saturday 11:0-0:0', 'Sunday 11:0-22:0']""""""",1,520 Progress Avenue,37,-79.2573181,43.778928,M1P 2K2,Seafood
Rock Lobster Food Co,2,3.5,Ossington Strip,h36qA5gnNTgByhxWx1aH-Q,"""""""['Monday 17:0-23:0', 'Tuesday 17:0-23:0', 'Wednesday 17:0-23:0', 'Thursday 17:0-23:0', 'Friday 17:0-2:0', 'Saturday 17:0-2:0', 'Sunday 17:0-23:0']""""""",0,110 Ossington Avenue,145,-79.4198509,43.6466065,M6J 2Z2,Seafood
Pure Spirits Oyster House & Grill,3,3,Distillery District,zIfCWjZ0RAe8YVMSPZdOdA,"""""""['Monday 11:30-22:0', 'Tuesday 11:30-22:0', 'Wednesday 11:30-22:0', 'Thursday 11:30-22:0', 'Friday 11:30-23:0', 'Saturday 11:30-23:0', 'Sunday 11:30-22:0']""""""",1,17 Tank House Lane,173,-79.3587249,43.6504177,M5A 3C4,Seafood
Oyster Boy,3,4,West Queen West,9GKi6rHN_0FRdcVahyIOXQ,"""""""['Monday 17:0-22:0', 'Tuesday 17:0-22:0', 'Wednesday 17:0-22:0', 'Thursday 17:0-23:0', 'Friday 17:0-23:0', 'Saturday 15:0-23:0', 'Sunday 15:0-22:0']""""""",1,872 Queen Street W,129,-79.4143966,43.6453964,M6J 1G3,Seafood
John & Sons Oyster House,3,3.5,Yonge and St. Clair,i0RdwbjF86Grl3T37z74IA,"""""""['Monday 11:30-22:0', 'Tuesday 11:30-22:0', 'Wednesday 11:30-22:0', 'Thursday 11:30-23:0', 'Friday 11:30-23:0', 'Saturday 11:30-23:0']""""""",0,1 Balmoral Avenue,47,-79.3932282,43.6858371,M4V 1J5,Seafood
John & Sons Oyster House,3,4,Financial District,i7_JPit-2kAbtRTLkic2jA,"""""""['Monday 11:30-22:0', 'Tuesday 11:30-22:0', 'Wednesday 11:30-23:0', 'Thursday 11:30-23:0', 'Friday 11:30-23:0']""""""",1,56 Temperance Street,50,-79.3817483,43.6504156,M5H,Seafood
Xam Yu Seafood Restaurant,2,4,Chinatown,2usOOBSDdo2Gx7pd5B4paQ,,0,339 Spadina Avenue,22,-79.3985989,43.6551013,M5T 2G3,Seafood
The Fish Store & Sandwiches,1,4,Little Italy,IfUkm42SB9D0m_ZbkQ711A,"""""""['Monday 12:0-20:0', 'Tuesday 12:0-20:0', 'Wednesday 12:0-20:0', 'Thursday 12:0-20:0', 'Friday 12:0-20:0', 'Saturday 12:0-20:0']""""""",1,657 College Street,128,-79.4163139,43.6549209,M6G 1B7,Seafood
Rodney's by Bay,3,4,Financial District,jGg91M4iJ9CUgdq6cO5sNw,"""""""['Monday 11:30-22:0', 'Tuesday 11:30-22:0', 'Wednesday 11:30-22:0', 'Thursday 11:30-23:0', 'Friday 11:30-23:0']""""""",0,56 Temperance Street,18,-79.3817145,43.6506455,M5H 3V5,Seafood
Mediterra Restaurant & Lounge,3,1.5,Financial District,jV5dMarm1r-gVzQ6SwNjrw,,0,133 Richmond Street West,3,-79.3848319,43.6504427,M5H 2L3,Seafood
Fishbar,3,3.5,Little Portugal,YbynHsi3Nf7YhftGIYm4pw,"""""""['Tuesday 18:0-22:0', 'Wednesday 18:0-22:0', 'Thursday 18:0-23:0', 'Friday 15:30-23:0', 'Saturday 15:30-23:0', 'Sunday 15:30-22:0']""""""",0,217 Ossington Avenue,57,-79.4204173,43.6488321,M6J 2Z7,Seafood
Rock Lobster Food,2,3,Alexandra Park,CogdxyYsTtyHyTMuj0RgFQ,"""""""['Monday 17:0-0:0', 'Tuesday 17:0-0:0', 'Wednesday 17:0-0:0', 'Thursday 17:0-0:0', 'Friday 12:0-1:0', 'Saturday 12:0-1:0', 'Sunday 12:0-0:0']""""""",0,538 Queen Street W,165,-79.4026372,43.6476557,M5V 2B7,Seafood
Captain John's,2,1.5,Harbourfront,mfgNzYPo7fV2uBcsyW23DQ,,0,1 Queens Quay W,12,-79.3754793,43.6416189,M5J 2H1,Seafood
LHL Seafood Restaurant,2,2.5,Scarborough,5Wq85xOGaeLK3V-tBKKASQ,,1,"""""""4438 Sheppard Avenue E, unit 201""""""",24,-79.26831007,43.78803206,M1S 2V7,Seafood
Pier 4 Storehouse Restaurant,2,2,Harbourfront,YCdLw_qAjZyG1lbcvJG8_Q,,0,245 Queens Quay W,15,-79.3851695,43.6389545,M5J 2K9,Seafood
The Keg Steakhouse + Bar - Esplanade,3,4,St. Lawrence,Gl6xFX8vM5dqknF9azPCMQ,,1,26 The Esplanade,77,-79.37495032,43.64664443,M5E 1A7,Seafood
Bí¢ton Rouge Steakhouse & Bar,2,3,Downtown Core,eYzm1jUK0GsI2KOLTt2PbQ,"""""""['Monday 11:0-23:0', 'Tuesday 11:0-23:0', 'Wednesday 11:0-23:0', 'Thursday 11:0-23:0', 'Friday 11:0-0:0', 'Saturday 11:0-0:0', 'Sunday 11:0-22:0']""""""",1,218 Yonge Street,107,-79.3801867,43.6538951,M5B 2H6,Seafood
Harbour Sixty,4,3.5,Harbourfront,4POPYEONJpkfhWOMx_PyGg,"""""""['Monday 10:30-23:0', 'Tuesday 10:30-23:0', 'Wednesday 10:30-23:0', 'Thursday 10:30-23:0', 'Friday 10:30-1:0', 'Saturday 17:0-1:0', 'Sunday 17:0-23:0']""""""",1,60 Harbour Street,154,-79.37843385,43.6420639,M5J 1B7,Seafood
Vicky's Fish & Chips,1,3,High Park,Jf1BBm837LtHJi-cAImwMg,"""""""['Monday 12:0-21:0', 'Tuesday 12:0-21:0', 'Wednesday 12:0-21:0', 'Thursday 12:0-21:0', 'Friday 12:0-21:0', 'Saturday 14:0-21:0', 'Sunday 16:0-21:0']""""""",1,414 Roncesvalles Avenue,20,-79.4511571,43.6517183,M6R 2N2,Seafood
City Kitchen,2,3.5,Downtown Core,i45pTXGFF9Kqz2JqKttt5w,"""""""['Monday 8:0-22:0', 'Tuesday 8:0-22:0', 'Wednesday 8:0-22:0', 'Thursday 8:0-23:0', 'Friday 8:0-0:0', 'Saturday 8:0-0:0', 'Sunday 8:0-21:0']""""""",1,"""""""220 Yonge Street, Unit YG16""""""",23,-79.3800603,43.6536106,M5B 2H1,Seafood
BLD Restaurant,2,3.5,Downtown Core,VxZQKw6fJzJUW14v4dWKXg,"""""""['Monday 8:0-14:30', 'Tuesday 8:0-14:30', 'Wednesday 8:0-22:0', 'Thursday 8:0-22:0', 'Friday 8:0-22:0', 'Saturday 17:30-22:0']""""""",0,36 Toronto Street,23,-79.3764788,43.6506232,M5C 2C5,Seafood
Bairrada Churrasqueira Grill,2,3.5,Dufferin Grove,DLkaSKMoeeQO-_1C_lzh2A,"""""""['Tuesday 10:30-23:0', 'Wednesday 10:30-23:0', 'Thursday 10:30-23:0', 'Friday 10:30-23:0', 'Saturday 10:30-23:0', 'Sunday 10:0-20:0']""""""",1,1000 College Street,91,-79.4286487,43.653136,M6H 1A7,Seafood
Copa By Sea,3,3,Entertainment District,Ejs--ofQoRyAtfRdUFuFhA,"""""""['Wednesday 17:0-22:0', 'Thursday 17:0-22:0', 'Friday 17:0-22:0', 'Saturday 16:0-22:0', 'Sunday 16:0-22:0']""""""",0,230 Adelaide Street W,64,-79.3882263,43.648443,M5H 3H1,Seafood
The Keg Steakhouse + Bar - Yonge + Eglinton,3,3.5,Mount Pleasant and Davisville,cicPsia8Wj-DNRkmLbD_xg,"""""""['Monday 11:30-1:0', 'Tuesday 11:30-1:0', 'Wednesday 11:30-1:0', 'Thursday 11:30-1:0', 'Friday 11:30-1:0', 'Saturday 16:0-1:0', 'Sunday 16:0-0:0']""""""",1,2201 Yonge St,55,-79.39781459,43.70587341,M4S 2B2,Seafood
The Captain's Boil,2,3.5,Little Italy,wZhB4U003eg2GQ-F7D2D4A,"""""""['Monday 12:0-23:0', 'Tuesday 12:0-23:0', 'Wednesday 12:0-23:0', 'Thursday 12:0-23:0', 'Friday 12:0-0:0', 'Saturday 12:0-0:0', 'Sunday 12:0-23:0']""""""",1,671 College St,10,-79.4170455,43.6549599,M6G 1B2,Seafood
EPIC Restaurant,3,3.5,Financial District,6md5a6HzI8oKkBTaOecygg,"""""""['Monday 12:0-14:0', 'Tuesday 12:0-14:0', 'Wednesday 12:0-14:0', 'Thursday 12:0-14:0', 'Friday 12:0-14:0', 'Saturday 12:0-14:0', 'Sunday 12:0-14:0']""""""",1,"""""""The Fairmont Royal York, 100 Front Street W""""""",59,-79.38223958,43.6456407,M5J 1E3,Seafood
Bright Pearl Restaurant,2,3,Chinatown,wMiGwn4qPvEN17CaQ3Zi4g,"""""""['Monday 9:0-23:0', 'Tuesday 9:0-23:0', 'Wednesday 9:0-23:0', 'Thursday 9:0-23:0', 'Friday 9:0-23:0', 'Saturday 9:0-23:0', 'Sunday 9:0-23:0']""""""",0,346 Spadina Avenue,37,-79.3986851,43.6542908,M5T 2G2,Seafood
Off The Hook Gourmet,2,3.5,Riverdale,IBZ6e3P0OqcPXVjvGlpueQ,"""""""['Monday 11:30-21:0', 'Tuesday 11:30-21:0', 'Wednesday 11:30-21:0', 'Thursday 11:30-21:0', 'Friday 11:30-22:0', 'Saturday 11:30-21:0', 'Sunday 12:0-20:0']""""""",1,749 Broadview Avenue,112,-79.358405,43.6759128,M4K 2P6,Seafood
Chippy's Fish and Chips,2,2.5,The Annex,z7Sg-WFc9Y1s-07Cb6-WZQ,,0,490 Bloor Street W,16,-79.4097749,43.6655415,M5S 1X8,Seafood
Chef's Depot,2,2.5,Scarborough,kaBMd8sgJvOh5CAgsP106g,"""""""['Monday 7:0-19:0', 'Tuesday 7:0-19:0', 'Wednesday 7:0-19:0', 'Thursday 7:0-19:0', 'Friday 7:0-19:0', 'Saturday 9:30-18:0', 'Sunday 10:0-17:0']""""""",1,2900 Markham Road,6,-79.2482857,43.824727,M1X 1E6,Seafood
Michael's on Simcoe,4,3.5,Entertainment District,dulgBrNtDCGjYcbQa2E6uA,"""""""['Monday 16:30-2:0', 'Tuesday 16:30-2:0', 'Wednesday 16:30-2:0', 'Thursday 16:30-2:0', 'Friday 16:30-2:0', 'Saturday 17:0-2:0', 'Sunday 17:0-2:0']""""""",1,100 Simcoe Street,63,-79.3863627,43.6480918,M5H 3T4,Seafood
Donatello Restaurant,3,4,Downtown Core,Q4RSmF0s-AkaegrLFCLEbg,"""""""['Monday 11:30-14:30', 'Monday 16:30-23:0', 'Tuesday 11:30-14:30', 'Tuesday 16:30-23:0', 'Wednesday 11:30-14:30', 'Wednesday 16:30-23:0', 'Thursday 11:30-14:30', 'Thursday 16:30-23:0', 'Friday 11:30-14:30', 'Friday 16:30-0:0', 'Saturday 16:30-0:0']""""""",1,37 Elm Street,91,-79.383474,43.657425,M5G 1H1,Seafood
La Vecchia Ristorante,2,4,Mount Pleasant and Davisville,59c3Cp-p5i18xFCKUuCkFQ,"""""""['Monday 11:30-23:0', 'Tuesday 11:30-23:0', 'Wednesday 11:30-23:0', 'Thursday 11:30-23:0', 'Friday 11:30-23:30', 'Saturday 10:0-0:0', 'Sunday 10:0-23:0']""""""",1,2405A Yonge Street,177,-79.3987926,43.7100711,M4P 2E7,Seafood
Bolands Kitchen,3,4,Mount Pleasant and Davisville,g-cwYRdm_mLg13nYRty84w,"""""""['Tuesday 11:30-14:0', 'Wednesday 11:30-14:0', 'Thursday 17:0-22:0', 'Friday 11:30-14:0', 'Friday 17:0-22:0', 'Saturday 17:0-22:0']""""""",1,575 Mt Pleasant Road,12,-79.3879812,43.7034604,M4S 2M6,Seafood
Grill Fish Cool,2,2.5,Scarborough,ls3r7doDW0p65cwMWxEIdQ,"""""""['Monday 12:0-0:30', 'Tuesday 12:0-0:30', 'Wednesday 12:0-0:30', 'Thursday 12:0-0:30', 'Friday 12:0-0:30', 'Saturday 12:0-0:30', 'Sunday 12:0-0:30']""""""",1,102 - 5005 Steeles Avenue E,10,-79.287826,43.82783,M1V 5K1,Seafood
Wok & Roast Chinese BBQ,1,3.5,Riverdale,6hkHrWb82XfJdZ-SJmCKCg,"""""""['Monday 9:0-22:30', 'Tuesday 9:0-22:30', 'Wednesday 9:0-22:30', 'Thursday 9:0-22:30', 'Friday 9:0-22:30', 'Saturday 9:0-22:30', 'Sunday 9:0-22:30']""""""",1,349 Broadview Ave,49,-79.3523283,43.6650672,M4M 2H1,Seafood
Bella's Lechon,1,2.5,Scarborough,VPhvdJpKc5nPzT0VdJgeKg,"""""""['Monday 11:0-20:0', 'Tuesday 11:0-20:0', 'Wednesday 11:0-20:0', 'Thursday 11:0-20:0', 'Friday 11:0-22:0', 'Saturday 11:0-22:0', 'Sunday 8:0-21:0']""""""",1,1145 Morningside Avenue,8,-79.1985036,43.8011937,M1B 0A7,Seafood
Kritamos Greek Fish House And Rotisserie,3,3,Greektown,bOkNPnbi8yECVpxIg46naA,"""""""['Monday 17:0-22:0', 'Tuesday 17:0-22:0', 'Wednesday 17:0-22:0', 'Thursday 17:0-22:0', 'Friday 17:0-0:0', 'Saturday 12:0-12:30', 'Sunday 12:0-22:0']""""""",0,443 Danforth Avenue,4,-79.3505865,43.6777003,M4K 1P1,Seafood
Nami Restaurant,3,3.5,Downtown Core,bAdlbqHs4ayJxOXOUFQDyw,"""""""['Monday 17:30-22:0', 'Tuesday 11:45-14:0', 'Tuesday 17:30-22:0', 'Wednesday 11:45-14:0', 'Wednesday 17:30-22:0', 'Thursday 11:45-14:0', 'Thursday 17:30-22:0', 'Friday 11:45-14:0', 'Friday 17:30-22:0', 'Saturday 17:30-22:0']""""""",1,55 Adelaide Street E,104,-79.37541269,43.65097751,M5C 1K6,Seafood
Joe Mamas,2,3.5,Entertainment District,ct90rEU1YlKgzW7BrfAZTw,"""""""['Tuesday 17:0-0:0', 'Wednesday 17:0-0:0', 'Thursday 11:0-14:0', 'Friday 11:0-14:0', 'Saturday 11:0-14:0', 'Sunday 16:0-0:0']""""""",0,317 King St W,66,-79.3906272,43.6462636,M5V 1J5,Seafood
The Poke Box,2,4,Downtown Core,WbS58nfQQZaxWk1BUPBuJQ,"""""""['Monday 11:0-19:0', 'Tuesday 11:0-19:0', 'Wednesday 11:0-19:0', 'Thursday 11:0-19:0', 'Friday 11:0-19:0', 'Saturday 12:0-17:0']""""""",1,36 Toronto Street,33,-79.3765364,43.6505779,M5C 2C5,Seafood
Honest Weight,2,4,The Junction,#NAME?,"""""""['Tuesday 11:0-21:0', 'Wednesday 11:0-21:0', 'Thursday 11:0-22:0', 'Friday 11:0-22:0', 'Saturday 11:0-22:0', 'Sunday 11:0-21:0']""""""",1,2766 Dundas Street W,42,-79.46148555,43.66533359,M6P 1Y3,Seafood
Carmen's Steak House,4,4,Church-Wellesley Village,R4jhm7FFQw0i1GpO4JvS5g,"""""""['Monday 11:0-14:0', 'Tuesday 11:0-14:0', 'Wednesday 11:0-14:0', 'Wednesday 17:0-22:30', 'Thursday 11:0-14:0', 'Friday 11:0-14:0', 'Saturday 11:0-14:0', 'Sunday 11:0-14:0']""""""",1,26 Alexander Street,39,-79.3822034,43.663246,M4Y 1B4,Seafood
Green Mango Express,2,5,Etobicoke,0sUd4i07uoQrE9DVMCLOuw,,1,1178 The Queensway,4,-79.521842,43.6220655,M8Z 1R5,Seafood
Chada Thai,2,4,The Beach,E7zuWvHH3XoVKJE8yEGIyw,"""""""['Tuesday 11:30-22:0', 'Wednesday 11:30-22:0', 'Thursday 11:30-22:0', 'Friday 11:30-23:0', 'Saturday 11:30-23:0', 'Sunday 11:30-22:0']""""""",0,1955 Queen Street E,13,-79.3022232,43.6694204,M4L 1H7,Seafood
lbs. Restaurant,2,3,Downtown Core,N6tJKe0h1NJgVm86NDg7ug,"""""""['Monday 11:30-21:30', 'Tuesday 11:30-21:30', 'Wednesday 11:30-21:30', 'Thursday 11:30-21:30', 'Friday 11:30-21:30', 'Saturday 17:0-21:30']""""""",1,"""""""100 Yonge Street, Suite 100""""""",38,-79.3785375,43.6497424,M5C 2W1,Seafood
Rock Lobster Food,2,2.5,Leslieville,y74H_27Vje2rM7s_xJch5w,"""""""['Tuesday 17:0-23:0', 'Wednesday 17:0-23:0', 'Thursday 17:0-0:0', 'Friday 17:0-1:0', 'Saturday 11:0-1:0', 'Sunday 12:0-23:0']""""""",0,1192 Queen Street E,45,-79.3316589,43.6630479,M4M 1L4,Seafood
Smoked & Cracked,4,4,Mount Pleasant and Davisville,i2iVOCmZ_aC2BI4vpGwU9w,"""""""['Wednesday 11:30-15:0', 'Thursday 11:30-15:0', 'Friday 11:30-15:0', 'Friday 17:0-22:0', 'Saturday 11:30-15:0', 'Saturday 17:0-22:0', 'Sunday 17:0-20:0']""""""",1,516 Mount Pleasant Road,30,-79.38783063,43.70186641,M4S 2M2,Seafood
Tak Fu Seafood Restaurant,2,4,Scarborough,xUUKtG0E-qAv3RyeOV20rg,"""""""['Monday 9:0-16:0', 'Tuesday 9:0-16:0', 'Wednesday 9:0-16:0', 'Thursday 9:0-16:0', 'Friday 9:0-16:0', 'Saturday 9:0-16:0', 'Sunday 9:0-16:0']""""""",1,633 Silver Star Boulevard,13,-79.2933886,43.8104298,M1V 5N1,Seafood
Noble Seafood,2,3.5,Kensington Market,uNjoyF_qlLqOSEEYVpTkLg,"""""""['Monday 9:0-1:0', 'Tuesday 9:0-1:0', 'Wednesday 9:0-1:0', 'Thursday 9:0-1:0', 'Friday 9:0-1:0', 'Saturday 9:0-1:0', 'Sunday 9:0-1:0']""""""",1,530 Dundas Street W,68,-79.3989901,43.6529859,M5T 2E7,Seafood
Buca Yorkville,3,3.5,Yorkville,z8H4Mdzl4jS9pYswj6Jf9w,"""""""['Monday 11:30-22:0', 'Tuesday 11:30-22:0', 'Wednesday 11:30-22:0', 'Thursday 11:30-23:0', 'Friday 11:30-23:0', 'Saturday 10:30-23:0', 'Sunday 10:30-22:0']""""""",1,53 Scollard Street,87,-79.3893921,43.6721423,M5R 0A1,Seafood
Oro Restaurant,3,4,Downtown Core,yEgnxd3aUUgUoG7qJiuDlQ,"""""""['Monday 11:30-14:0', 'Monday 17:30-22:0', 'Tuesday 11:30-14:0', 'Tuesday 17:30-22:0', 'Wednesday 11:30-14:0', 'Wednesday 17:30-22:0', 'Thursday 11:30-14:0', 'Thursday 17:30-22:0', 'Friday 11:30-14:0', 'Friday 17:30-22:0', 'Saturday 17:30-22:0']""""""",1,45 Elm Street,44,-79.3838275,43.6573002,M5G 1H1,Seafood
Houston Steaks & Ribs,3,2.5,St. Lawrence,lr_czwJLinqGYf-rxkXFmg,"""""""['Monday 11:0-23:0', 'Tuesday 11:0-23:0', 'Wednesday 11:0-0:0', 'Thursday 11:0-0:0', 'Friday 11:0-0:0', 'Saturday 16:0-0:0']""""""",0,33 Yonge St,33,-79.3765439,43.6475281,M5E 0A9,Seafood
The Captain's Boil,3,4,Scarborough,2VtTzskzFcwVnXgGYsY1lQ,"""""""['Monday 11:0-0:0', 'Tuesday 11:0-0:0', 'Wednesday 11:0-0:0', 'Thursday 11:0-0:0', 'Friday 11:0-1:0', 'Saturday 11:0-1:0', 'Sunday 11:0-0:0']""""""",1,4505 Sheppard Avenue E,9,-79.2649551,43.7881309,M1S,Seafood
South Sea Village Chinese Restaurant,1,4,Scarborough,TUMMUJ_W3JqPpfU_D_Hscg,"""""""['Monday 11:0-23:0', 'Tuesday 11:0-23:0', 'Wednesday 11:0-23:0', 'Thursday 11:0-23:0', 'Friday 11:0-23:0', 'Saturday 11:0-23:0', 'Sunday 11:0-23:0']""""""",0,1 Glen Watford Drive,9,-79.2760491,43.786027,M1S 2B7,Seafood
Omonia Restaurant,3,2.5,The Danforth,p0CsAuiW9KCW_ySDNNRW1w,"""""""['Monday 11:0-0:0', 'Tuesday 11:0-0:0', 'Wednesday 11:0-0:0', 'Thursday 11:0-0:0', 'Friday 11:0-1:0', 'Saturday 11:0-1:0', 'Sunday 11:0-0:0']""""""",0,426 Danforth Avenue,49,-79.3509626,43.67794514,M4K 1P3,Seafood
Eastside Social,2,4,Leslieville,cIX8h9_IrzU_-4TGXGM0fQ,"""""""['Monday 17:30-0:0', 'Tuesday 17:30-0:0', 'Wednesday 17:30-0:0', 'Thursday 17:30-0:0', 'Friday 17:30-1:0', 'Saturday 17:30-1:0']""""""",1,1008 Queen Street E,39,-79.3391867,43.6613875,M4M 1K1,Seafood
HY's Steakhouse & Cocktail Bar,4,3.5,Financial District,0BW6h-igJinzbqc-prYUaQ,"""""""['Monday 11:30-23:0', 'Tuesday 11:30-23:0', 'Wednesday 11:30-23:0', 'Thursday 11:30-23:0', 'Friday 11:30-23:0', 'Saturday 17:0-23:0']""""""",1,120 Adelaide Street W,78,-79.3832232,43.6499721,M5H 1T1,Seafood
Chop Steakhouse & Bar,3,4,Etobicoke,9Oc8UhYNarSisYM9SEBsKQ,"""""""['Monday 11:0-1:0', 'Tuesday 11:0-1:0', 'Wednesday 11:0-1:0', 'Thursday 11:0-1:0', 'Friday 11:0-1:0', 'Saturday 11:0-1:0', 'Sunday 11:0-0:0']""""""",1,801 Dixon Road,104,-79.5876065,43.6866977,M9W 1J5,Seafood
Hogtown Pub & Oysters,2,4,Little Italy,c_FTil8s5PS2l_YJDQAXhA,"""""""['Monday 16:0-1:0', 'Tuesday 16:0-1:0', 'Wednesday 16:0-1:0', 'Thursday 16:0-2:0', 'Friday 16:0-2:0', 'Saturday 16:0-2:0', 'Sunday 16:0-1:0']""""""",1,633 College Street W,35,-79.4149935,43.6548045,M6G 3A7,Seafood
Smokeless Joe,3,4,Palmerston,mBU4G-eh-GN2Tp1X-uLb3A,"""""""['Monday 12:0-1:0', 'Tuesday 17:0-1:0', 'Wednesday 17:0-1:0', 'Thursday 17:0-2:0', 'Friday 11:0-2:0', 'Saturday 11:0-2:0', 'Sunday 11:0-2:0']""""""",0,488 College Street,66,-79.4095854,43.6562566,M6G 1A4,Seafood
Centro Restaurant & Lounge,3,3.5,Yonge and Eglinton,N_AKBS5GxZsSe9ofWkHsIQ,"""""""['Monday 17:0-23:0', 'Tuesday 17:0-23:0', 'Wednesday 17:0-23:0', 'Thursday 17:0-23:0', 'Friday 17:0-23:0', 'Saturday 17:0-23:0']""""""",0,2472 Yonge Street,24,-79.3995315,43.7114497,M4P 2H5,Seafood
Mr Jerk,1,4,Cabbagetown,6Li3eGHOHaqfR9E8oaI1yg,"""""""['Monday 9:0-17:0', 'Tuesday 9:0-22:0', 'Wednesday 9:0-22:0', 'Thursday 9:0-22:0', 'Friday 9:0-22:0']""""""",1,209 Wellesley Street E,63,-79.373197,43.6672071,M4X 1G1,Seafood
Senisi Fine Foods,2,5,Dufferin Grove,lcWWUUx0uqVl6at9MHqYJg,,0,1080 College Street,3,-79.4314897,43.6527624,M6H 1B2,Seafood
The Real Jerk,2,3.5,Riverdale,1PQzTopufAMDpx0HHBFeRA,"""""""['Monday 11:30-23:0', 'Tuesday 11:30-23:0', 'Wednesday 11:30-23:0', 'Thursday 11:30-2:0', 'Friday 11:30-1:0', 'Saturday 13:0-1:0', 'Sunday 15:0-22:0']""""""",1,842 Gerrard Street E,87,-79.3432553,43.667787,M4M 1Y7,Seafood
Chopsticks House,2,4,Downtown Core,Veh0kB2ErSaKsH5v6o7nwQ,"""""""['Monday 11:0-22:0', 'Tuesday 11:0-22:0', 'Wednesday 11:0-22:0', 'Thursday 11:0-22:0', 'Friday 11:0-22:0', 'Saturday 11:0-22:0', 'Sunday 11:0-22:0']""""""",1,6B Wellesley Street W,14,-79.3851073,43.664923,M4Y 1E7,Seafood
The Miller Tavern,2,3,Harbourfront,dPrFp1cxaTeTe9cyL36NkA,"""""""['Monday 11:30-0:0', 'Tuesday 11:30-0:0', 'Wednesday 11:30-0:0', 'Thursday 11:30-0:0', 'Friday 11:30-0:0', 'Saturday 16:0-0:0', 'Sunday 11:0-22:0']""""""",1,31 Bay Street,64,-79.37730512,43.64235785,M5J 3B2,Seafood
Far Niente,3,3,Downtown Core,U1RvFnS-j6ItZ8VJGyncog,"""""""['Monday 11:30-14:0', 'Monday 17:0-22:0', 'Tuesday 11:30-14:0', 'Wednesday 11:30-14:0', 'Wednesday 17:0-22:0', 'Thursday 17:0-22:0', 'Friday 11:30-14:0', 'Friday 17:0-22:0', 'Saturday 17:0-22:0']""""""",0,"""""""187 Bay St, Commerce Court""""""",53,-79.3796001,43.6475668,M5L 1G5,Seafood
Nyood Restaurant and Bar,4,3,West Queen West,UTc9QKSXd-UxaDjDIDUmKA,"""""""['Wednesday 18:0-22:0', 'Thursday 18:0-22:0', 'Friday 18:0-23:0', 'Saturday 18:0-23:0']""""""",0,1096 Queen Street W,36,-79.4226647,43.6434472,M6J 1H9,Seafood
Fresh Off The Boat,2,3.5,Alexandra Park,EWmwbOm_4UhOtvLaBzHpPA,"""""""['Monday 11:0-21:0', 'Tuesday 11:0-21:0', 'Wednesday 11:0-21:0', 'Thursday 11:0-21:0', 'Friday 11:0-22:0', 'Saturday 12:0-22:0', 'Sunday 12:0-19:0']""""""",1,404 Queen Street W,176,-79.3972377,43.6485741,M5V 2A7,Seafood
Ruth's Chris Steak House,4,3.5,Financial District,Q2ZNaN3p8s_-XXjBWyY2qA,"""""""['Monday 17:0-22:0', 'Tuesday 17:0-22:0', 'Wednesday 17:0-22:0', 'Thursday 17:0-22:0', 'Friday 12:0-22:30', 'Saturday 4:30-22:30', 'Sunday 16:0-21:0']""""""",1,145 Richmond Street W,157,-79.3853057,43.6496117,M5H 2L2,Seafood
Tinto Bar De Tapas,2,4,Mount Pleasant and Davisville,oQXONZ6ZmxycTzAiKMOM9w,"""""""['Tuesday 17:30-12:0', 'Wednesday 17:30-12:0', 'Thursday 17:30-12:0', 'Friday 17:30-12:0', 'Saturday 17:30-12:0', 'Sunday 17:30-12:0']""""""",1,1581 Bayview Avenue,13,-79.3751845,43.7058471,M4G 3B5,Seafood
Reds Wine Tavern,3,3.5,Financial District,C3rH8u6P3wFH95AH8SeNmw,"""""""['Monday 11:30-0:0', 'Tuesday 11:30-0:0', 'Wednesday 11:30-0:0', 'Thursday 11:30-2:0', 'Friday 11:30-2:0', 'Saturday 16:0-1:0']""""""",1,"""""""77 Adelaide St.W., 1st Canadian Pl""""""",81,-79.3823318,43.6483116,M5X 1B1,Seafood
Pokito,2,3.5,Alexandra Park,87I8ba2FKYKeXyAhiC6cLg,"""""""['Monday 11:0-22:0', 'Tuesday 11:0-22:0', 'Wednesday 11:0-22:0', 'Thursday 11:0-22:0', 'Friday 11:0-22:0', 'Saturday 11:0-22:0', 'Sunday 12:0-21:0']""""""",1,420 Queen Street W,68,-79.3979855,43.6485203,M5V 2A7,Seafood
North Poke,2,4,Kensington Market,gOvEzwpu3KbW5aJReQzYRg,"""""""['Monday 11:0-20:0', 'Tuesday 11:0-20:0', 'Wednesday 11:0-20:0', 'Thursday 11:0-20:0', 'Friday 11:0-21:0', 'Saturday 11:0-21:0', 'Sunday 11:0-20:0']""""""",1,179 Baldwin Street,51,-79.4006043,43.6548031,M5T,Seafood
Geraldine,3,4,Parkdale,3num8fBJ9Z0T_HfshUNcrA,"""""""['Tuesday 17:0-0:0', 'Wednesday 17:0-0:0', 'Thursday 17:0-0:0', 'Friday 17:0-0:0', 'Saturday 11:0-0:0', 'Sunday 11:0-0:0']""""""",0,1564 Queen Street W,20,-79.4403278,43.6399626,M6R 1A6,Seafood
The Daughter,2,3,The Junction,k06XtKFh2TLkWNLhBzmshQ,"""""""['Tuesday 17:0-22:0', 'Wednesday 17:0-22:0', 'Friday 12:0-22:0', 'Saturday 10:30-22:0', 'Sunday 10:30-17:0']""""""",0,1588 Dupont Street,35,-79.4540472,43.665269,M6P 3S6,Seafood
Sparrow,2,4,Bloor-West Village,x_1Yo9ArcbitR6NQC7tOUA,"""""""['Tuesday 16:0-22:0', 'Wednesday 16:0-22:0', 'Thursday 16:0-0:0', 'Friday 16:0-1:0', 'Saturday 10:0-1:0', 'Sunday 10:0-15:0']""""""",0,2197 Bloor Street W,21,-79.47516228,43.65135156,M6S,Seafood
Boston Pizza,2,3,Etobicoke,PqRfOvjPa0EqbcH4MQY7pw,,1,1602 The Queensway,16,-79.5439442,43.618545,M8Z 1V1,Pizza
Pizza Hut,1,2.5,Bloor-West Village,6tFbsJuIarw6vawDOZ9GkA,"""""""['Monday 11:0-23:0', 'Tuesday 11:0-23:0', 'Wednesday 11:0-23:0', 'Thursday 11:0-23:0', 'Friday 11:0-1:0', 'Saturday 11:0-1:0', 'Sunday 12:0-23:0']""""""",1,2100 Bloor Street W,9,-79.4708935,43.6526178,M6S 4Y7,Pizza
Mr Right Pizza,2,4.5,Bickford Park,6D_rZE3vtdur2RR_QK0G6Q,"""""""['Monday 11:0-23:0', 'Tuesday 11:0-23:0', 'Wednesday 11:0-23:0', 'Thursday 11:0-23:0', 'Friday 11:0-2:0', 'Saturday 11:0-2:0', 'Sunday 11:0-0:0']""""""",0,821A Bloor Street W,9,-79.4223655,43.6625882,M6G 1M1,Pizza
Bar Milano,2,2.5,Harbourfront,gMONN1bKUHlNKPrYGSADLQ,,1,207 Queens Quay W,44,-79.3808612,43.639499,M5J 1A7,Pizza
Pizzeria Via Mercanti,2,4,Kensington Market,T7yKffTuhiIZclsgjfgowA,"""""""['Monday 11:0-22:0', 'Tuesday 11:0-22:0', 'Wednesday 11:0-22:0', 'Thursday 11:0-23:0', 'Friday 11:0-0:0', 'Saturday 11:0-0:0', 'Sunday 11:0-22:0']""""""",1,188 Augusta Avenue,147,-79.4019622,43.6541053,M5T 1M1,Pizza
241 Pizza,1,3,Dovercourt,ng93vMQLaUwLCvsz5t06tQ,,1,1055 Bloor Street W,11,-79.4324156,43.660492,M6H 1M4,Pizza
Pizzeria Via Mercanti,2,4,Leslieville,ngpwNIImAFfEl1wzaDDWGA,,1,1501 Gerrard Street East,19,-79.3196334,43.6724498,M4L 2A4,Pizza
Pizza Pizza,1,2.5,Church-Wellesley Village,V_P9yqnmr9Ol42VWfFjW4g,"""""""['Monday 11:0-2:0', 'Tuesday 11:0-2:0', 'Wednesday 11:0-2:0', 'Thursday 11:0-3:0', 'Friday 11:0-3:0', 'Saturday 11:0-3:0', 'Sunday 11:0-2:0']""""""",1,68 Wellesley Street E,10,-79.3806846,43.6659478,M4Y 1H2,Pizza
Uncle Tony's,2,4,St. Lawrence,mH_T6JbQkGdWcL0htKvNxA,"""""""['Monday 11:30-22:30', 'Tuesday 11:30-22:30', 'Wednesday 11:30-22:30', 'Thursday 11:30-22:30', 'Friday 11:30-0:0', 'Saturday 17:0-0:0']""""""",1,38 Wellington Street E,29,-79.3750309,43.648368,M5E 1C7,Pizza
Chicago Don,3,3,Dovercourt,SLCz2CaXXHJefrB942486w,"""""""['Monday 17:0-23:0', 'Tuesday 17:0-23:0', 'Wednesday 17:0-23:0', 'Thursday 17:0-23:0', 'Friday 17:0-0:0', 'Saturday 17:0-0:0', 'Sunday 17:0-23:0']""""""",0,901 Bloor Street W,10,-79.4262935,43.6617522,M6H 1L2,Pizza
New York Cafe,1,3.5,Riverdale,lf-H2l65FE0oluEco-m4KA,"""""""['Monday 7:0-23:0', 'Tuesday 7:0-23:0', 'Wednesday 7:0-23:0', 'Thursday 7:0-23:0', 'Friday 7:0-1:0', 'Saturday 7:0-1:0', 'Sunday 7:0-23:0']""""""",1,757 Broadview Avenue,33,-79.3586501,43.6760389,M4K 2P6,Pizza
Napolitan Brick Oven Pizza,2,4.5,Etobicoke,s7XVRYnDgohSDlwtta5euQ,"""""""['Tuesday 12:0-21:0', 'Wednesday 12:0-21:0', 'Thursday 12:0-21:0', 'Friday 12:0-21:0', 'Saturday 12:0-21:0', 'Sunday 16:0-21:0']""""""",1,1020 Islington Avenue,19,-79.5186772,43.6310849,M8Z 6A4,Pizza
Pizzaiolo,2,3,Church-Wellesley Village,EYKDklUoHuZ4g4mjx9q0mA,,0,461 Church Street,11,-79.3799896,43.6642642,M4Y 2C7,Pizza
Pizzeria Libretto Danforth,2,4,The Danforth,OIdOJaNS8M624F58XGV3PQ,"""""""['Monday 11:30-22:0', 'Tuesday 11:30-22:0', 'Wednesday 11:30-22:0', 'Thursday 11:30-22:0', 'Friday 11:30-23:0', 'Saturday 11:30-23:0', 'Sunday 11:30-22:0']""""""",1,550 Danforth Avenue,238,-79.3475845,43.6785541,M4K 1P7,Pizza
Telepizza,1,2.5,Dufferin Grove,SEyDJL4IHSEK9ThpOgJN0g,,1,836 College St,3,-79.4229797,43.6544428,M6H 1A2,Pizza
TrueTrue,2,4,Corktown,5WJOM9DefIvLOIrntDIv-A,"""""""['Monday 11:0-22:0', 'Tuesday 11:0-22:0', 'Wednesday 11:0-22:0', 'Thursday 11:0-22:0', 'Friday 11:0-22:0', 'Saturday 12:0-22:0', 'Sunday 12:0-22:0']""""""",1,169 King Street E,85,-79.3713047,43.6503484,M5R 1J4,Pizza
Mr Ciao,2,3.5,Riverdale,Wppq3ceZDMNCr24X4i-kfw,"""""""['Monday 17:0-2:0', 'Tuesday 17:0-2:0', 'Wednesday 17:0-2:0', 'Thursday 17:0-2:0', 'Friday 17:0-2:0', 'Saturday 17:0-2:0', 'Sunday 17:0-2:0']""""""",0,598 Gerrard Street E,24,-79.3518608,43.665616,M4M 1Y3,Pizza
Gino's Pizza,1,1.5,Bickford Park,vC2VWfjDMtnQMELHx0tm5Q,,1,802 College St,7,-79.4216623,43.6547603,M6G 1C8,Pizza
Amicos Pizza Ristorante,2,3,Parkdale,Kdt5XrqARBMIH694fgnyuA,"""""""['Monday 16:0-4:0', 'Wednesday 16:0-4:0', 'Thursday 16:0-4:0', 'Friday 16:0-4:0', 'Saturday 16:0-4:0', 'Sunday 16:0-4:0']""""""",1,1648 Queen Street W,26,-79.443082,43.639388,M6R 1B2,Pizza
Pizzaiolo,1,2.5,Yorkville,diosugZoYfZtzNhClRC6LA,,1,834 Yonge St,11,-79.387639,43.6713271,M4W,Pizza
Pizza Pizza,1,2,Queen Street West,Idk-QTyUZq9w0ALh5cyvrw,"""""""['Monday 11:0-2:0', 'Tuesday 11:0-2:0', 'Wednesday 11:0-2:0', 'Thursday 11:0-3:0', 'Friday 11:0-3:0', 'Saturday 11:0-3:0', 'Sunday 11:0-2:0']""""""",1,228 Queen Street W,8,-79.3900762,43.6503226,M5V 1Z6,Pizza
Pizza Pizza,1,1.5,The Beach,2xP6Ng5FVqIhnYgFtrQNYQ,"""""""['Monday 11:0-2:0', 'Tuesday 11:0-2:0', 'Wednesday 11:0-2:0', 'Thursday 11:0-3:0', 'Friday 11:0-3:0', 'Saturday 11:0-3:0', 'Sunday 11:0-2:0']""""""",1,1881 Queen Street E,7,-79.3055517,43.6687021,M4L 1H3,Pizza
Amato Pizza,1,2,Downtown Core,l2KV-9-dkrvhZF6lNrPpCw,"""""""['Monday 11:0-2:0', 'Tuesday 11:0-2:0', 'Wednesday 11:0-2:0', 'Thursday 11:0-4:0', 'Friday 11:0-4:0', 'Saturday 11:0-4:0', 'Sunday 11:0-0:0']""""""",1,429 Yonge Street,32,-79.3823879,43.6604422,M5B 1T1,Pizza
Freshslice Pizza,1,3,Willowdale,i2O5tXByY_m5cSeV3dKu-w,,1,5223 Yonge St,13,-79.4131949,43.7713411,M2N 5P8,Pizza
Blaze Fast-Fire'd Pizza,2,4.5,Ryerson,pSMK_FtULKiU-iuh7SMKwg,"""""""['Monday 11:0-23:0', 'Tuesday 11:0-23:0', 'Wednesday 11:0-23:0', 'Thursday 11:0-23:0', 'Friday 11:0-0:0', 'Saturday 11:0-0:0', 'Sunday 11:0-23:0']""""""",1,10 Dundas St,216,-79.38004275,43.65653133,M5B 0A1,Pizza
Baldini Restaurant,2,3.5,Leslieville,wQMw6kc24uUQqqUGxe3Ztg,"""""""['Monday 11:30-15:0', 'Monday 17:0-22:0', 'Tuesday 11:30-15:0', 'Tuesday 17:0-22:0', 'Wednesday 11:30-15:0', 'Wednesday 17:0-22:0', 'Thursday 11:30-15:0', 'Thursday 17:0-22:0', 'Friday 11:30-15:0', 'Friday 17:0-22:30', 'Saturday 17:0-22:30', 'Sunday 17:0-22:0']""""""",1,1012 Queen Street E,41,-79.339032,43.661413,M4M 1K1,Pizza
Magic Oven,2,3.5,The Danforth,HcO6gAwDePNiJ-LKeoKYaw,"""""""['Monday 11:0-22:0', 'Tuesday 11:0-22:0', 'Wednesday 11:0-22:0', 'Thursday 11:0-23:0', 'Friday 11:0-23:0', 'Saturday 11:0-23:0', 'Sunday 12:0-22:0']""""""",0,798 Danforth Avenue,35,-79.3416014,43.6797379,M4J 1L6,Pizza
Pizza Pizza,1,1.5,Scarborough,E4wuEcTEmuq7kvgSbTDLFQ,"""""""['Monday 11:0-2:0', 'Tuesday 11:0-2:0', 'Wednesday 11:0-2:0', 'Thursday 11:0-3:0', 'Friday 11:0-3:0', 'Saturday 11:0-3:0', 'Sunday 11:0-2:0']""""""",1,"""""""2900 Warden Avenue, Unit 205 207""""""",6,-79.3184634,43.7983618,M1W 2S8,Pizza
Vinny Massimo's Pizza & Pasta,2,3.5,West Queen West,e1q9kpu9wzyFHLkKegf49w,,0,1130 Queen Street W,23,-79.4239029,43.6431907,M6J,Pizza
Pizzaiolo,2,3,Mount Pleasant and Davisville,nY7fbhtSoofHCJ18x0lNhQ,,0,2221 Yonge Street,5,-79.3979253,43.7060203,M4S 2B4,Pizza
Pizza Pizza,1,1.5,The Annex,HD7GoWA4e3AeBfb0KPCy8Q,"""""""['Monday 11:0-2:0', 'Tuesday 11:0-2:0', 'Wednesday 11:0-2:0', 'Thursday 11:0-3:0', 'Friday 11:0-3:0', 'Saturday 11:0-3:0', 'Sunday 11:0-2:0']""""""",1,328 Bloor Street W,15,-79.403651,43.6669472,M5S 1W5,Pizza
Colombo's Pizza,1,3,The Danforth,BrMqGmsqIqa_Qjyk4EiFGA,,0,1794 Danforth Avenue,8,-79.3188248,43.6845136,M4C 1H8,Pizza
Albany Pizza,2,4,Brockton Village,9EFl_EUSaW3Qiq-8Hlc92g,,1,222 Lansdowne Avenue,42,-79.4394354,43.6490601,M6K,Pizza
Classico Louie's Pizzeria,1,3.5,Yonge and Eglinton,hUGsHeHHPfJ4gpj4LwHyXw,"""""""['Monday 11:0-0:0', 'Tuesday 11:0-0:0', 'Wednesday 11:0-0:0', 'Thursday 11:0-0:0', 'Friday 11:0-0:0', 'Saturday 11:0-0:0', 'Sunday 11:0-23:0']""""""",1,2549 Yonge Street,25,-79.399421,43.713297,M4P 2H9,Pizza
Pastizza,2,4,St. Lawrence,cSSgeQQOz2modfT7zTHJHQ,"""""""['Monday 11:30-22:0', 'Tuesday 11:30-22:0', 'Wednesday 11:30-22:0', 'Thursday 11:30-22:0', 'Friday 11:30-0:0', 'Saturday 11:30-0:0', 'Sunday 11:30-22:0']""""""",0,118 The Esplanade,52,-79.3719852,43.6481186,M5E 1A9,Pizza
Supermodel Pizza,1,3,Little Italy,SAEGVsnptCMREqLSiNRX1Q,"""""""['Monday 11:0-23:0', 'Tuesday 11:0-23:0', 'Wednesday 11:0-23:0', 'Thursday 11:0-0:0', 'Friday 11:0-4:0', 'Saturday 11:0-4:0', 'Sunday 11:0-23:0']""""""",0,772 College St,6,-79.4204363,43.6548712,M6G 1C6,Pizza
King Slice,1,3.5,High Park,amsvLzfEvCzLwP0MnXAJ1w,"""""""['Monday 11:0-0:0', 'Tuesday 11:0-0:0', 'Wednesday 11:0-0:0', 'Thursday 11:0-0:0', 'Friday 11:0-0:0', 'Saturday 11:0-0:0', 'Sunday 11:0-0:0']""""""",1,1598 Bloor St W,73,-79.4549508,43.6559437,M6P 1A7,Pizza
Osteria Dei Ganzi,2,3.5,Church-Wellesley Village,liCPyfxs-CYXAV_zAmB9dw,"""""""['Tuesday 17:0-22:0', 'Wednesday 17:0-22:0', 'Thursday 17:0-22:0', 'Friday 17:0-22:0', 'Saturday 17:0-22:0', 'Sunday 17:0-22:0']""""""",0,504 Jarvis Street,51,-79.3789748,43.6672279,M4Y 2H6,Pizza
Pizza Hut,2,1.5,St. Lawrence,vQXhuCQ4Wc3WWesp9hy3VQ,"""""""['Monday 11:0-23:0', 'Tuesday 11:0-23:0', 'Wednesday 11:0-23:0', 'Thursday 11:0-23:0', 'Friday 11:0-1:0', 'Saturday 11:0-1:0', 'Sunday 12:0-23:0']""""""",1,"""""""77 Lower Jarvis Street, Unit 2""""""",9,-79.3707212,43.6477197,M5E 1R8,Pizza
Pizzaville,2,4.5,Seaton Village,r0wnhsHteNXUgWcRcL9ZlA,,1,635 Markham Street,5,-79.4123777,43.6652394,M6G 2M1,Pizza
Mamma's Pizza,1,2.5,Downtown Core,_yx1DWYyEI57N1pI45TVOg,,1,334 Yonge St,3,-79.3816022,43.6574371,M5B 1R8,Pizza
Olympic 76 Pizza,2,4,Church-Wellesley Village,h2LDxrB2hphlIAHur8gR9Q,,1,8 Gloucester Street,38,-79.38473606,43.66674847,M4Y 1L5,Pizza
Pizza Pizza,1,1.5,Corktown,yaGbqAboFEo-ThynBkd-eQ,"""""""['Monday 11:0-2:0', 'Tuesday 11:0-2:0', 'Wednesday 11:0-2:0', 'Thursday 11:0-3:0', 'Friday 11:0-3:0', 'Saturday 11:0-3:0', 'Sunday 11:0-2:0']""""""",1,107 Front Street E,3,-79.3710947,43.6494848,M5E 1C7,Pizza
Mr Pide,1,4.5,The Danforth,-7BCZH437U5FjmNJ26llkg,"""""""['Tuesday 11:0-22:0', 'Wednesday 11:0-22:0', 'Thursday 11:0-22:0', 'Friday 11:0-23:0', 'Saturday 11:0-23:0', 'Sunday 11:0-22:0']""""""",1,800 Danforth Avenue,52,-79.3416051,43.6797669,M4J 1L6,Pizza
Salt and Tobacco,2,4.5,Cabbagetown,hrrPxT846kLGs7ehEtLmRg,"""""""['Monday 17:0-21:0', 'Tuesday 17:0-21:0', 'Wednesday 17:0-21:0', 'Thursday 17:0-21:0', 'Friday 17:0-21:30', 'Saturday 17:0-21:30', 'Sunday 17:0-21:0']""""""",1,521 Parliament Street,10,-79.3681704,43.6653639,M4X 1P3,Pizza
Diamond Pizza,1,2,East York,t2GtB-aiOzrNnuGxZV190g,"""""""['Monday 11:0-0:30', 'Tuesday 11:0-0:30', 'Wednesday 11:0-0:30', 'Thursday 11:0-0:30', 'Friday 11:0-1:0', 'Saturday 11:0-1:0', 'Sunday 11:0-23:30']""""""",1,510 Main Street,9,-79.3048792,43.6947165,M4C 4Y2,Pizza
Pizza Park,1,4,Koreatown,z9SkYzD6RkmsdDw1qq3uXA,,1,733 Bloor Street W,13,-79.418602,43.6634306,M6G,Pizza
Maple Leaf House,2,2.5,Etobicoke,67hgX03yotM6MUiKI99rhQ,"""""""['Monday 11:0-1:0', 'Tuesday 11:0-1:0', 'Wednesday 11:0-1:0', 'Thursday 11:0-1:0', 'Friday 11:0-1:0', 'Saturday 11:0-1:0', 'Sunday 11:0-1:0']""""""",1,2749 Lake Shore Boulevard W,6,-79.498597,43.6019054,M8V 1H2,Pizza
Pizzeria Via Mercanti,2,3,Discovery District,dsAcgF6qtZy2m6d_yWCrGQ,,1,87 Elm Street,40,-79.3867086,43.6567857,M5G 0A8,Pizza
Pizza Hut,2,3,Mount Pleasant and Davisville,nQFlHK1UxglOjhblGSgeaw,"""""""['Monday 11:0-23:0', 'Tuesday 11:0-23:0', 'Wednesday 11:0-23:0', 'Thursday 11:0-23:0', 'Friday 11:0-0:0', 'Saturday 11:0-0:0', 'Sunday 12:0-23:0']""""""",1,1386 Av Bayview,6,-79.3734904,43.7006501,M4G 3A1,Pizza
Panzerotto & Pizza 2 For 1,1,2,Church-Wellesley Village,dg3Tv10mdBKR6IAVuNV-nQ,,0,501 Yonge Street,3,-79.3835684,43.6631962,M4Y 1Y4,Pizza
Homebake Pizza Company,2,3.5,High Park,owfd8FWiwn2zxITgYmtaaA,"""""""['Tuesday 15:0-20:0', 'Wednesday 15:0-20:0', 'Thursday 15:0-20:0', 'Friday 14:0-21:0', 'Saturday 14:0-21:0', 'Sunday 14:0-20:0']""""""",0,476 Roncesvalles Ave,5,-79.4517542,43.6532108,M6R 2N4,Pizza
Pizzaiolo,1,2,Riverdale,j4C0NelU_RzYMz0jXS-lMg,,1,698 Queen St E,22,-79.350264,43.6588966,M4M 1G9,Pizza
The Stone Pizza,1,4,Upper Beach,L_GiRGKnEUMW56cRskf5Mw,"""""""['Monday 12:0-20:0', 'Tuesday 12:0-20:0', 'Wednesday 12:0-20:0', 'Thursday 12:0-20:0', 'Friday 12:0-20:0', 'Saturday 12:0-20:0', 'Sunday 12:0-20:0']""""""",1,281 Scarborough Road,8,-79.287124,43.6806528,M4E 3M9,Pizza
Pizza Pizza,1,3,Ryerson,obrbOqA5Pxita02b0rcGrg,"""""""['Monday 11:0-2:0', 'Tuesday 11:0-2:0', 'Wednesday 11:0-2:0', 'Thursday 11:0-3:0', 'Friday 11:0-3:0', 'Saturday 11:0-3:0', 'Sunday 11:0-2:0']""""""",1,346 Yonge Street,5,-79.3817333,43.6577514,M5B 1R8,Pizza
Napoli Centrale,2,4.5,The Annex,ohEGwJtSqrVd2SD-FKKrUQ,"""""""['Monday 17:0-22:0', 'Tuesday 17:0-22:0', 'Wednesday 17:0-22:0', 'Thursday 17:0-22:0', 'Friday 17:0-23:0', 'Saturday 17:0-23:0', 'Sunday 17:0-22:0']""""""",1,964 Bathurst Street,33,-79.4129745,43.6695182,M5R 3G5,Pizza
Double Double Pizza & Chicken,1,2,The Junction,wo6LUARwQ5sZI-DI9XOdpw,,1,2798 Dundas St W,4,-79.4626899,43.6654909,M6P 2J3,Pizza
Pizza Pizza,2,3,Mount Pleasant and Davisville,qWWVizgVxBaXXbE8Y-7-qA,"""""""['Monday 11:0-2:0', 'Tuesday 11:0-2:0', 'Wednesday 11:0-2:0', 'Thursday 11:0-3:0', 'Friday 11:0-3:0', 'Saturday 11:0-3:0', 'Sunday 11:0-2:0']""""""",1,2295 Yonge Street,11,-79.3981607,43.7076725,M4P 2C6,Pizza
Pizza Pizza,1,3,Niagara,CtXGSacf8PSx-meVInTBUw,"""""""['Monday 11:0-2:0', 'Tuesday 11:0-2:0', 'Wednesday 11:0-2:0', 'Thursday 11:0-3:0', 'Friday 11:0-3:0', 'Saturday 11:0-3:0', 'Sunday 11:0-2:0']""""""",1,655 Queen Street W,4,-79.404198,43.6469736,M6J 1E6,Pizza
Freshslice Pizza,1,3,Downtown Core,vROhHLGsyLh9oC9GNXJBfQ,,1,250 Dundas Street W,5,-79.389177,43.6547776,M5G 1V6,Pizza
Mammas Pizza,1,4,Harbourfront,tlGch0ojsV8VoktvwbKMzg,"""""""['Monday 11:0-0:0', 'Tuesday 11:0-0:0', 'Wednesday 11:0-0:0', 'Thursday 11:0-1:0', 'Friday 11:0-1:0', 'Saturday 11:0-1:0', 'Sunday 11:0-23:0']""""""",1,249 Queens Quay W,4,-79.38626186,43.63867646,M5J 2N5,Pizza
Golden Pizza,3,3.5,The Danforth,x-BB2AVFmS01i6GLQ22_9Q,,1,2360 Danforth Ave,5,-79.3063712,43.687359,M4C 1K7,Pizza
Tutti Pizzeria,1,4,Yorkville,NGr7u6mAhcEcjFu8r9njSg,"""""""['Monday 11:30-19:0', 'Tuesday 11:30-19:0', 'Wednesday 11:30-19:0', 'Thursday 11:30-19:0', 'Friday 11:30-19:0', 'Saturday 11:30-19:0']""""""",1,100 Bloor Street W,36,-79.3912183,43.6697101,M5S 3L7,Pizza
Pizza Nova,2,3,Church-Wellesley Village,PbIjlAXsM99Km2SwrDw4aw,,1,568 Church St,16,-79.3812562,43.6661045,M4Y 2C9,Pizza
FBI PIZZA,2,3,Etobicoke,q3uuXi_U-Jqxsk5Nx1Iomw,"""""""['Monday 11:0-0:0', 'Tuesday 11:0-0:0', 'Wednesday 11:0-0:0', 'Thursday 11:0-0:0', 'Friday 11:0-2:0', 'Saturday 11:0-2:0', 'Sunday 11:0-0:0']""""""",1,2336 Lake Shore Boulevard W,75,-79.488022,43.616765,M8V 1B8,Pizza
La Mona's,2,2,Parkdale,FMb6y8iLrM37Zy0jCzs1cA,"""""""['Monday 10:0-1:0', 'Tuesday 10:0-1:0', 'Wednesday 10:0-1:0', 'Thursday 10:0-1:0', 'Friday 10:0-3:0', 'Saturday 10:0-3:0', 'Sunday 10:0-0:0']""""""",1,1210 King Street W,3,-79.4278714,43.6389498,M6K 1G4,Pizza
Pizza Pizza,1,2.5,Leslieville,XXXb0ANM2vU37VnAAZvlVQ,"""""""['Monday 11:0-2:0', 'Tuesday 11:0-2:0', 'Wednesday 11:0-2:0', 'Thursday 11:0-3:0', 'Friday 11:0-3:0', 'Saturday 11:0-3:0', 'Sunday 11:0-2:0']""""""",1,1252 Gerrard Street E,3,-79.32825208,43.67099523,M4L 1Y6,Pizza
F'Amelia,3,3.5,Cabbagetown,MLQeuiL9rqOq_rDKGEcU0A,"""""""['Monday 17:0-22:0', 'Tuesday 17:0-23:0', 'Wednesday 17:0-23:0', 'Thursday 17:0-23:0', 'Friday 17:0-23:0', 'Saturday 17:0-23:0', 'Sunday 17:0-23:0']""""""",1,12 Amelia Street,83,-79.368594,43.6674629,M4X 1E1,Pizza
Bitondo's Pizzeria,1,4,Little Italy,aIBvcOjkAURJJ-UH0G-s0g,"""""""['Monday 11:0-23:0', 'Tuesday 11:0-23:0', 'Wednesday 11:0-23:0', 'Thursday 11:0-23:0', 'Friday 11:0-23:0', 'Saturday 11:0-23:0', 'Sunday 11:0-23:0']""""""",1,11 Clinton Street,105,-79.4133282,43.6538683,M6J 2N7,Pizza
Pizza e Pazzi,2,2.5,Etobicoke,aYKicBsSzLKr76_bvsURZA,,0,9th Street Lakeshore Boulevard,7,-79.5076076,43.6002871,M8V,Pizza
Queen Slice Pizza & Pita,1,2.5,Downtown Core,fBgUT-V7F66kNOkv56fCnA,,1,177 College Street,8,-79.3940426,43.6588003,M5T 1P7,Pizza
St. Louis Bar & Grill,2,3,Downtown Core,_ESIk0hZa3MdyxEsOlKv5Q,"""""""['Monday 11:0-0:0', 'Tuesday 11:0-0:0', 'Wednesday 11:0-0:0', 'Thursday 11:0-0:0', 'Friday 11:0-2:0', 'Saturday 11:0-2:0', 'Sunday 11:0-0:0']""""""",1,528 Yonge St,41,-79.3842337,43.6637863,M4Y 1X9,Pizza
Magic Oven,2,3,Corktown,msJmDVMEd2fOnO5GEuWsoA,"""""""['Monday 11:0-23:0', 'Tuesday 11:0-23:0', 'Wednesday 11:0-23:0', 'Thursday 11:0-23:0', 'Friday 11:0-23:0', 'Saturday 11:0-23:0', 'Sunday 16:0-22:0']""""""",0,360 Queen Street East,27,-79.3639722,43.6559734,M5A 1T2,Pizza
Slice of the Mediterranean,1,3,Discovery District,cXjnotNqhUcAxoSIohPDxA,,0,"""""""171 Dundas Street W, Unit 2""""""",4,-79.3862686,43.6551752,M5G 1C7,Pizza
Pi Co,2,4,Yorkville,#NAME?,"""""""['Monday 11:0-21:0', 'Tuesday 11:0-21:0', 'Wednesday 11:0-21:0', 'Thursday 11:0-0:0', 'Friday 11:0-0:0', 'Saturday 11:0-0:0', 'Sunday 11:0-0:0', 'Sunday 11:0-21:0']""""""",1,1200 Bay Street,30,-79.3898095,43.6700032,M5R 2A5,Pizza
Pizzeria Libretto,2,3.5,Financial District,XT25YpQoNDuzAZHur-HZ8g,"""""""['Monday 11:30-23:0', 'Tuesday 11:30-23:0', 'Wednesday 11:30-23:0', 'Thursday 11:30-23:0', 'Friday 11:30-23:0', 'Saturday 11:30-23:0', 'Sunday 11:30-23:0']""""""",1,155 University Avenue,182,-79.3848424,43.6485343,M5H 3B7,Pizza
Mamma's Pizza,2,2.5,Downtown Core,lCMOdWehkmMbb-BY4B4XxA,"""""""['Monday 11:0-0:0', 'Tuesday 11:0-0:0', 'Wednesday 11:0-0:0', 'Thursday 11:0-0:0', 'Friday 11:0-1:0', 'Saturday 11:0-1:0', 'Sunday 11:0-23:0']""""""",1,127 Yonge Street,7,-79.3784558,43.650905,M5C 1X3,Pizza
Parlour Deep Dish Pizza,3,2,St. Lawrence,cUykVQ_VHEzwfU53cFvxhA,,1,38 Wellington St E,5,-79.3750687,43.6484529,M5E 1C9,Pizza
Pizza Rustica,2,3,Entertainment District,E9b73ETPw0VYUJ2_YSJJdQ,"""""""['Monday 10:0-3:0', 'Tuesday 10:0-3:0', 'Wednesday 10:0-3:0', 'Thursday 10:0-3:0', 'Friday 10:0-3:0', 'Saturday 10:0-3:0', 'Sunday 10:0-3:0']""""""",1,37 Blue Jays Way,125,-79.391932,43.6450877,M5V 9G9,Pizza
Boston Pizza,2,3,Entertainment District,7ZJ_qv18n7nzbry5bsq2Pg,"""""""['Monday 11:0-2:0', 'Tuesday 11:0-2:0', 'Wednesday 11:0-2:0', 'Thursday 11:0-2:0', 'Friday 11:0-2:0', 'Saturday 11:0-2:0', 'Sunday 11:0-2:0']""""""",1,"""""""250 Front Street  W, Unit 1C201""""""",40,-79.38855314,43.64413921,M5V 3G5,Pizza
Mamma's Pizza,1,3,Entertainment District,UTj2l1Cdc6PFdPzVtJDndg,"""""""['Monday 11:0-0:0', 'Tuesday 11:0-0:0', 'Wednesday 11:0-0:0', 'Thursday 11:0-2:0', 'Friday 11:0-2:0', 'Saturday 11:0-2:0', 'Sunday 11:0-0:0']""""""",1,405 Richmond Street W,16,-79.3954226,43.6479015,M5V 1X3,Pizza
Magic Oven,2,3.5,Downtown Core,zZoWJPYXK4AwBh0tn5pmsw,"""""""['Monday 11:0-22:0', 'Tuesday 11:0-22:0', 'Wednesday 11:0-22:0', 'Thursday 11:0-22:30', 'Friday 11:0-22:30', 'Saturday 11:0-22:30', 'Sunday 12:0-22:0']""""""",0,6 Wellesley Street W,48,-79.3850847,43.66492985,M4Y 1E7,Pizza
Pizza Flora,1,3,Roncesvalles,sT9oX8vDwD9btDakUM2H5w,"""""""['Monday 11:0-22:0', 'Tuesday 11:0-22:0', 'Wednesday 11:0-22:0', 'Thursday 11:0-22:0', 'Friday 11:0-23:0', 'Saturday 11:0-23:0', 'Sunday 12:0-21:0']""""""",1,167 Roncesvalles Avenue,18,-79.448125,43.64426,M6R 2L2,Pizza
Pizzaiolo,2,2,Downtown Core,tBnkwWamzdO6X25sfV0Fyg,"""""""['Monday 10:0-23:0', 'Tuesday 10:0-23:0', 'Wednesday 10:0-23:0', 'Thursday 10:0-23:0', 'Friday 10:0-23:0', 'Saturday 10:0-23:0', 'Sunday 10:0-23:0']""""""",1,104 Yonge Street,10,-79.3781243,43.6498025,M5H 1A1,Pizza
Pizza Nova,1,2.5,Upper Beach,UQW34W90XPb5nCGBDVQPVA,"""""""['Monday 11:0-1:0', 'Tuesday 11:0-1:0', 'Wednesday 11:0-1:0', 'Thursday 11:0-1:0', 'Friday 11:0-2:0', 'Saturday 11:0-2:0', 'Sunday 11:0-0:0']""""""",1,1614 Queen Street E,3,-79.31648254,43.66650958,M4L 1G4,Pizza
Corrado's,1,4.5,Entertainment District,Grr2wJ3nYD_7qUyespDglA,"""""""['Monday 11:0-21:0', 'Tuesday 11:0-21:0', 'Wednesday 11:0-21:0', 'Thursday 11:0-21:0', 'Friday 11:0-4:0', 'Saturday 12:0-4:0', 'Sunday 12:0-21:0']""""""",1,118 John Street,170,-79.39063707,43.64829396,M5V 2E2,Pizza
Casa Di Giorgios,2,4,Upper Beach,Huo1lJmVkdqvFuLtA74Nhw,"""""""['Monday 16:0-22:0', 'Tuesday 16:0-22:0', 'Wednesday 16:0-22:0', 'Thursday 16:0-22:0', 'Friday 16:0-23:0', 'Saturday 16:0-22:0', 'Sunday 16:0-22:0']""""""",1,1646 Queen St E,48,-79.3152179,43.66684,M4L 1G3,Pizza
180 Secondi,2,4,Yonge and St. Clair,Erf_MwkL0Gls3tCJvz41-A,"""""""['Monday 11:30-21:0', 'Tuesday 11:30-21:0', 'Wednesday 11:30-21:0', 'Thursday 11:30-21:0', 'Friday 11:30-21:0', 'Saturday 17:0-21:0', 'Sunday 17:0-21:0']""""""",0,"""""""21 St Clair Avenue W, Unit B""""""",34,-79.3949431,43.6876962,M4V 1K6,Pizza
Keele Ur Hunger,2,3,The Junction,#NAME?,"""""""['Monday 11:0-1:0', 'Tuesday 11:0-1:0', 'Wednesday 11:0-1:0', 'Thursday 11:0-1:0', 'Friday 11:0-2:0', 'Saturday 11:0-2:0', 'Sunday 11:0-1:0']""""""",1,2798 Dundas Street W,5,-79.4627296,43.6655097,M6P 1Y5,Pizza
Pizza e Pazzi,2,3.5,Corso Italia,ERnG-1q3igX3VSgm5uLZ6A,"""""""['Monday 17:0-22:0', 'Tuesday 17:0-22:0', 'Wednesday 12:0-22:0', 'Thursday 12:0-22:0', 'Friday 17:0-23:0', 'Saturday 12:0-23:0', 'Sunday 12:0-22:0']""""""",1,1182 Saint Clair Avenue W,47,-79.4438931,43.6780154,M6E 1B4,Pizza
Queen Margherita Pizza,2,4,Little Italy,npTomO2iJwilPgn8UOQqrA,"""""""['Monday 12:0-22:0', 'Tuesday 12:0-22:0', 'Wednesday 12:0-22:0', 'Thursday 12:0-22:0', 'Friday 12:0-22:0', 'Saturday 12:0-22:0', 'Sunday 12:0-22:0']""""""",1,772 Dundas Street W,36,-79.4074608,43.6521031,M6J 1V1,Pizza
Domino's Pizza,1,2.5,The Junction,hX8XeGwSxGgEatWt_ISywA,"""""""['Monday 11:0-0:0', 'Tuesday 11:0-0:0', 'Wednesday 11:0-0:0', 'Thursday 11:0-0:0', 'Friday 11:0-2:0', 'Saturday 11:0-2:0', 'Sunday 11:0-1:0']""""""",1,344 High Park Avenue,5,-79.4705236,43.6653857,M6P 2S7,Pizza
Pizza Pizza,1,3,Niagara,IHLWV3wACiH54VQuEfcEWQ,,0,181 Bathurst St,3,-79.40414277,43.64704497,M5T 2R7,Pizza
Martino's Pizza,1,4,The Annex,LWI8ULsw0X1FpInux4Tg5Q,"""""""['Monday 11:0-23:0', 'Tuesday 11:0-23:0', 'Wednesday 11:0-23:0', 'Thursday 11:0-23:0', 'Friday 11:0-1:0', 'Saturday 11:0-1:0']""""""",1,178 Dupont Street,17,-79.4036442,43.675568,M5R 2E6,Pizza
Papa John's Pizza,1,2.5,Brockton Village,DXqZZEXApTmRauLzSUh1nQ,,1,1269 College Street,8,-79.4394628,43.6509146,M6H 1C4,Pizza
Frank's Pizza House Restaurant,2,3.5,Corso Italia,W8Rv62fsDCbDp0L-Vl1NFg,"""""""['Tuesday 16:0-22:0', 'Wednesday 16:0-22:0', 'Thursday 12:0-22:0', 'Friday 12:0-23:0', 'Saturday 12:0-23:0', 'Sunday 16:0-22:0']""""""",1,1352 St Clair Avenue W,63,-79.4492976,43.6768656,M6E 1C4,Pizza
Mamma's Pizza,1,2.5,Greektown,S24zkRnTBxIbXJ1kBRXCtw,,1,507 Av Danforth,5,-79.3489099,43.677971,M4K 1P5,Pizza
1 Plus 2 Pizza & Wings,2,3.5,The Danforth,4jIzZmhO79w4CpQrSAiJ9Q,,0,1540 Danforth Avenue,3,-79.324489,43.6833365,M4J 1N4,Pizza
CiCi's Pizza,1,3.5,Parkdale,vVnccEZW4p9HlbUEucpUYg,"""""""['Monday 12:0-23:0', 'Tuesday 12:0-23:0', 'Wednesday 12:0-23:0', 'Thursday 12:0-23:0', 'Friday 11:0-0:0', 'Saturday 12:0-0:0', 'Sunday 12:0-23:0']""""""",1,1618 Queen St W,24,-79.4420788,43.6396283,M6R 1A8,Pizza
Domino's Pizza,1,2.5,Scarborough,a9-r8ru5CAN_cNK1kVsPnw,"""""""['Monday 11:0-0:0', 'Tuesday 11:0-0:0', 'Wednesday 11:0-0:0', 'Thursday 11:0-0:0', 'Friday 11:0-2:0', 'Saturday 11:0-2:0', 'Sunday 11:0-0:0']""""""",1,447 Pharmacy Avenue,3,-79.2885683,43.7044892,M1L 3G7,Pizza
Mangia & Bevi,2,4,Corktown,tWdp26XQEJqJGnRmFVJQxA,"""""""['Monday 10:0-22:0', 'Tuesday 10:0-22:0', 'Wednesday 10:0-22:0', 'Thursday 10:0-22:0', 'Friday 10:0-22:0', 'Saturday 12:0-15:0', 'Sunday 12:0-15:0']""""""",1,260 King Street E,126,-79.36630726,43.6522239,M5R 4L5,Pizza
Gino's Pizza,3,2,Niagara,1y55p5EUl23naNsoC0clvg,,0,"""""""869 Queen Street W, Apartment 212""""""",5,-79.4115779,43.6456599,M6J,Pizza
Mamma's Pizza,2,3,Bloor-West Village,aIBPN-DjQj0rrPokHWGOaw,,0,2392 Bloor Street W,6,-79.4825957,43.6498805,M6S 1P5,Pizza
Pizzaiolo,2,3,Upper Beach,FThzT9bwBTuLC1oveGVjhw,,1,66 Kingston Rd,10,-79.3120046,43.6690677,M4L 1S4,Pizza
Brass Taps Pizza Pub,2,3,Greektown,8idRgzKzCZ2l2_d7nUSQDQ,"""""""['Monday 12:0-2:0', 'Tuesday 12:0-2:0', 'Wednesday 12:0-2:0', 'Thursday 12:0-2:0', 'Friday 12:0-2:0', 'Saturday 11:0-2:0', 'Sunday 11:0-2:0']""""""",1,493 Danforth Avenue,25,-79.3493149,43.6779223,M4K 1P5,Pizza
Panago,2,3.5,Liberty Village,fS3nh8egPi7eIBZi3Y3W7w,"""""""['Monday 11:0-23:0', 'Tuesday 11:0-23:0', 'Wednesday 11:0-23:0', 'Thursday 11:0-23:0', 'Friday 11:0-0:0', 'Saturday 11:0-0:0', 'Sunday 11:0-23:0']""""""",1,120 Lynn Williams Street,10,-79.417724,43.6387,M6K 3P6,Pizza
Slice of New York,1,2.5,Downtown Core,fY3lvNKf5KyQUDwUz2apnQ,,0,64 Edward Street,16,-79.3837965,43.6564922,M5G 1C9,Pizza
Boccone Deli & Pizza,2,4,Yonge and St. Clair,Jlk4tLFXusQ6yWOFffpUfA,,1,1378 Yonge Street,20,-79.3935614,43.6862465,M4T 1Y5,Pizza
Panago Pizza,1,4,Etobicoke,6nB9E2ObWNjTRhrUj8dq7w,"""""""['Monday 11:0-23:0', 'Tuesday 11:0-23:0', 'Wednesday 11:0-23:0', 'Thursday 11:0-23:0', 'Friday 11:0-0:0', 'Saturday 11:0-0:0', 'Sunday 11:0-23:0']""""""",1,5230 Dundas Street W,3,-79.5379597,43.6402786,M9B 1A8,Pizza
Local Lakeside Patio,2,2,Harbourfront,1zFAb8xhhsP6uvt_0I0CFw,,1,235 Queens Quay West,12,-79.38322516,43.63801902,M5J 2G8,Pizza
Gelato Pizza,1,3.5,Entertainment District,_t7gK-Nde9aNV_vf88wi5g,,0,200 Queen Street W,7,-79.388729,43.6503811,M5V 1Z9,Pizza
Queen Margherita Pizza,2,3.5,Leslieville,cepfJZIv0iLj1fDs8LdYZg,"""""""['Monday 12:0-22:0', 'Tuesday 12:0-22:0', 'Wednesday 12:0-22:0', 'Thursday 12:0-22:0', 'Friday 12:0-23:0', 'Saturday 12:0-23:0', 'Sunday 12:0-22:0']""""""",1,"""""""1402 Queen Street E, Unit 8""""""",135,-79.324168,43.664969,M4L 1C9,Pizza
Little Caesars,1,2.5,Scarborough,9CcOOIJckoGF2sA9Rw2ZSg,,1,3591 A Sheppard Ave,5,-79.29870319,43.78044903,M1T 3K8,Pizza
Ciccio's Pizza and Pasta,2,3.5,Little Italy,HWMvxmKDrHtmmcsOmKA8Yg,"""""""['Monday 16:0-0:0', 'Tuesday 16:0-0:0', 'Wednesday 16:0-0:0', 'Thursday 16:0-0:0', 'Friday 16:0-1:0', 'Saturday 14:0-1:0', 'Sunday 14:0-0:0']""""""",1,796 Dundas Street W,26,-79.408214,43.6519697,M6J 1V9,Pizza
Pizza Nova,1,3,Niagara,Zog3PqBGy0P7WUc8cLR7hQ,,1,901 King Street W,7,-79.41175772,43.64194873,M7A 2A9,Pizza
Piola,2,3.5,West Queen West,cVlW0omVTRaVJqnT-OBBsQ,"""""""['Tuesday 12:0-23:0', 'Wednesday 12:0-23:0', 'Thursday 12:0-23:0', 'Friday 12:0-1:0', 'Saturday 12:0-1:0', 'Sunday 12:0-23:0']""""""",0,1165 Queen Street W,69,-79.4257699,43.6426372,M6J 1J6,Pizza
Pizza Depot,2,2.5,Scarborough,k-PxUoiqD-jxtBOdQ1kF0A,,1,2060 Ellesmere Rd,6,-79.2342065,43.7759365,M1H 3B7,Pizza
Centro Pizza,2,3,Scarborough,bzGnAIe9OiBHGWJE-dZ_8g,"""""""['Monday 11:30-1:0', 'Tuesday 11:30-1:0', 'Wednesday 11:30-1:0', 'Thursday 11:30-1:0', 'Friday 11:30-2:0', 'Saturday 11:30-2:0', 'Sunday 11:30-0:0']""""""",1,286 Markham Road,5,-79.2201882,43.7461798,M1J 3G1,Pizza
Zaza Espresso Bar,1,3,Wychwood,Vd6FVCKq0bHqVneb0DjTnw,"""""""['Monday 8:0-22:0', 'Tuesday 8:0-22:0', 'Wednesday 8:0-22:0', 'Thursday 8:0-22:0', 'Friday 8:0-23:0', 'Saturday 8:0-23:0', 'Sunday 8:0-22:0']""""""",1,775 Saint Clair Avenue W,12,-79.4290026,43.6808761,M6C 1B7,Pizza
Brass Taps Pizza Pub,2,3.5,Dufferin Grove,l7RCvKqA61Jzm98gaqIhvw,"""""""['Monday 11:30-2:0', 'Tuesday 11:30-2:0', 'Wednesday 11:30-2:0', 'Thursday 11:30-2:0', 'Friday 11:30-2:0', 'Saturday 11:0-2:0', 'Sunday 11:0-2:0']""""""",1,934 College St,28,-79.4261354,43.6537865,M6H 1A4,Pizza
Pizza and Wings,1,2.5,Etobicoke,3OdBW4ooaACTNugCb03Djw,,1,3206 Lakeshore Blvd. W,7,-79.5206401,43.597394,M8V 1L9,Pizza
Gino's Pizza,1,2,Bloordale Village,viRqqFhA6SsB5BRiKF9F6A,,1,"""""""1163 Bloor Street W, Suite 1149""""""",5,-79.43673134,43.65959808,M6H 1N1,Pizza
Buddha Pie,2,3.5,The Junction,A3YhRPb0DPQPJL22nlYSxw,"""""""['Tuesday 17:0-21:0', 'Wednesday 17:0-21:0', 'Thursday 17:0-21:0', 'Friday 17:0-21:0', 'Saturday 17:0-21:0', 'Sunday 17:0-21:0']""""""",1,514B Annette Street,40,-79.4797994,43.6602773,M6P 1S3,Pizza
Domino's Pizza,1,2.5,Niagara,9ZiDvEuYv-ABq_JDEnrOgg,"""""""['Monday 10:0-1:0', 'Tuesday 10:0-1:0', 'Wednesday 10:0-1:0', 'Thursday 10:0-1:0', 'Friday 10:0-2:0', 'Saturday 10:0-2:0', 'Sunday 10:0-1:0']""""""",1,51 Niagara Street,19,-79.402023,43.6417644,M5V 1C2,Pizza
Pizza Land,2,3.5,Scarborough,3Z55ll2Rx43I96aozFG3Eg,"""""""['Monday 11:0-22:0', 'Tuesday 11:0-22:0', 'Wednesday 11:0-22:0', 'Thursday 11:0-22:0', 'Friday 11:0-23:0', 'Saturday 12:0-23:0', 'Sunday 12:0-22:0']""""""",1,1801 Lawrence Avenue E,19,-79.305327,43.742424,M1R 2X9,Pizza
Famoso Neapolitan,2,3.5,The Annex,bDut3KRQJ0qLElfaJNQFgg,"""""""['Monday 11:0-22:0', 'Tuesday 11:0-22:0', 'Wednesday 11:0-23:0', 'Thursday 11:0-23:0', 'Friday 11:0-23:0', 'Saturday 11:0-23:0', 'Sunday 11:0-22:0']""""""",1,386 Bloor Street W,120,-79.4068603,43.666224,M5S 1X9,Pizza
Pizzaiolo,2,3,Mount Pleasant and Davisville,fzfbN0UZPtricqlB_Cy27A,,1,745 Mount Pleasant,7,-79.38957537,43.70738552,M4S,Pizza
Pizza Pizza,2,3,Riverdale,bbLmWFHAr-dCR8KHVla8aQ,"""""""['Monday 11:0-2:0', 'Tuesday 11:0-2:0', 'Wednesday 11:0-2:0', 'Thursday 11:0-3:0', 'Friday 11:0-3:0', 'Saturday 11:0-3:0', 'Sunday 11:0-2:0']""""""",1,85 Danforth Avenue,4,-79.3589764,43.6760141,M4K 1M9,Pizza
Gusto Pizza,2,3,Scarborough,PFf0rzMI-Es6X0AtHlNPbg,,1,1 Bonis Avenue,4,-79.29920945,43.78348981,M1T 2T9,Pizza
Amato Pizza,1,2,Leslieville,gQbfVuWEElYFqsS0qbUbpQ,"""""""['Monday 10:0-1:0', 'Tuesday 10:0-1:0', 'Wednesday 10:0-1:0', 'Thursday 10:0-1:0', 'Friday 10:0-2:0', 'Saturday 10:0-2:0', 'Sunday 10:0-1:0']""""""",1,1056 Queen Street E,7,-79.3374374,43.6618962,M4M 1K3,Pizza
Lo Zingaro,2,4,Queen Street West,fuBpjG-lsD94_BdpjHxbuQ,"""""""['Tuesday 17:0-22:0', 'Wednesday 17:0-22:0', 'Thursday 17:0-22:0', 'Friday 17:0-23:0', 'Saturday 17:0-23:0']""""""",0,571 Queen Street  W,71,-79.40094799,43.64770579,M5V 2B6,Pizza
Positano Restaurant,2,4.5,Mount Pleasant and Davisville,zmfa8RNxqSuOJ9Nx-CMs_Q,"""""""['Tuesday 17:0-22:0', 'Wednesday 17:0-22:0', 'Thursday 17:0-22:0', 'Friday 17:0-22:0', 'Saturday 17:0-23:0', 'Sunday 17:0-22:0']""""""",1,633 Mount Pleasant Road,30,-79.3885319,43.7047029,M4S 2M9,Pizza
Lambretta Pizzeria & Wine Bar,2,4,Roncesvalles,xhCiQt_-pMp1nKDXZ7n7BQ,"""""""['Monday 12:0-21:30', 'Tuesday 12:0-21:30', 'Wednesday 12:0-21:30', 'Thursday 12:0-22:30', 'Friday 12:0-22:30', 'Saturday 12:0-22:30', 'Sunday 12:0-21:30']""""""",1,89 Roncesvalles Avenue,25,-79.44713056,43.64165965,M6R 2K6,Pizza
Vesuvio Pizzeria & Spaghetti House,2,4,The Junction,PUDtJu2bFTvIl1_WhyUIXQ,,1,3010 Dundas St W,85,-79.4698238,43.6655868,M6P 1Z3,Pizza
Pizzeria Defina,2,4,High Park,9xdVIIzHp12Zrox5aFaaHA,"""""""['Monday 12:0-22:0', 'Tuesday 12:0-22:0', 'Wednesday 12:0-22:0', 'Thursday 12:0-22:0', 'Friday 12:0-23:0', 'Saturday 12:0-23:0', 'Sunday 12:0-22:0']""""""",1,321 Roncesvalles Ave,74,-79.4499432,43.6486938,M6R 2M6,Pizza
Viccino Pizzeria,2,3.5,The Beach,Qf7x_9ATlcm-thjdxOWJ4A,"""""""['Monday 12:0-22:0', 'Tuesday 12:0-22:0', 'Wednesday 12:0-22:0', 'Thursday 12:0-22:0', 'Friday 12:0-23:0', 'Saturday 12:0-23:0']""""""",0,1923 Queen St E,13,-79.3039884,43.6691396,M4L 1H3,Pizza
Factory Girl,2,3.5,Riverdale,aadG1TzULt-ezzUJZUSSJQ,"""""""['Monday 11:0-1:0', 'Tuesday 11:0-1:0', 'Wednesday 11:0-1:0', 'Thursday 11:0-2:0', 'Friday 11:0-2:0', 'Saturday 11:0-2:0', 'Sunday 11:0-1:0']""""""",1,193 Danforth Avenue,72,-79.3562023,43.676581,M4K 1N2,Pizza
Fusaro's Kitchen,2,4,Entertainment District,sKrt4CMGyG8YAjxVkk4hPQ,"""""""['Monday 9:0-21:0', 'Tuesday 9:0-21:0', 'Wednesday 9:0-21:0', 'Thursday 9:0-21:0', 'Friday 9:0-21:0', 'Saturday 10:0-16:0']""""""",1,147 Spadina Avenue,85,-79.3956287,43.6480684,M5V 2L7,Pizza
Levetto,2,4,Dufferin Grove,iag4htR8F7FmE9zpz7_GMw,"""""""['Monday 11:0-22:0', 'Tuesday 11:0-22:0', 'Wednesday 11:0-22:0', 'Thursday 11:0-22:0', 'Friday 11:0-23:0', 'Saturday 11:0-23:0', 'Sunday 11:0-22:0']""""""",1,940 College Street,42,-79.4265904,43.6536812,M6H 1A5,Pizza
San Francesco Foods,2,3,Discovery District,0r9NuzpFE6l0hwVAJDnhVg,"""""""['Monday 10:30-21:0', 'Tuesday 10:30-21:0', 'Wednesday 10:30-21:0', 'Thursday 10:30-21:0', 'Friday 10:30-21:0', 'Saturday 10:30-21:0', 'Sunday 11:0-21:0']""""""",1,736 Bay Street,12,-79.3855275,43.6593919,M5G 2M4,Pizza
Albion's Pizza Shawarma,1,4,Dovercourt,1GulRRJaDG5SD5DfITqg-w,"""""""['Monday 11:30-22:30', 'Tuesday 11:30-22:30', 'Wednesday 11:30-22:30', 'Thursday 11:30-22:30', 'Friday 11:30-22:30', 'Saturday 11:30-22:30', 'Sunday 11:30-22:30']""""""",0,1030 Bloor Street W,30,-79.4315503,43.6606886,M6H 1M2,Pizza
Yummy Yummy Dumplings,1,4,Downtown Core,QaxDKkqYTtVYZJcqBNTnvQ,"""""""['Monday 11:0-22:0', 'Tuesday 11:0-22:0', 'Wednesday 11:0-22:0', 'Thursday 11:0-22:0', 'Friday 11:0-22:30', 'Saturday 11:0-22:30', 'Sunday 11:0-22:30']""""""",1,79 Huron Street,123,-79.3960196,43.6538103,M5T 2A8,Pizza
Awtash Cafe,2,3,Kensington Market,0PlZmy62LZmy5mA2BE6znw,"""""""['Monday 18:0-0:0', 'Tuesday 18:0-0:0', 'Wednesday 18:0-0:0', 'Thursday 18:0-0:0', 'Friday 18:0-2:0', 'Saturday 18:0-2:0', 'Sunday 18:0-0:0']""""""",0,419 College Street,51,-79.4069136,43.6564945,M5T,Pizza
Pizza Pizza,1,2.5,Dufferin Grove,EDqCEAGXVGCH4FJXgqtjqg,"""""""['Monday 11:0-2:0', 'Tuesday 11:0-2:0', 'Wednesday 11:0-2:0', 'Thursday 11:0-3:0', 'Friday 11:0-3:0', 'Saturday 11:0-3:0', 'Sunday 11:0-2:0']""""""",1,979 Bloor Street W,7,-79.429089,43.661054,M6H 1L5,Pizza
Luce Restaurant,2,4,Niagara,o7io7ITyHfjXOpxIktL0Bg,"""""""['Tuesday 16:0-22:0', 'Wednesday 16:0-22:0', 'Thursday 16:0-23:0', 'Friday 11:30-0:0', 'Saturday 11:0-0:0', 'Sunday 11:0-22:0']""""""",0,791 King Street W,24,-79.4068177,43.6430561,M5V 1N4,Pizza
Gino's Pizza & Wing Machine,1,1.5,Mount Pleasant and Davisville,DtzDpAflD41-rI6njywacw,"""""""['Monday 11:0-0:0', 'Tuesday 11:0-0:0', 'Wednesday 11:0-0:0', 'Thursday 11:0-1:0', 'Friday 11:0-2:0', 'Saturday 11:0-2:0', 'Sunday 12:0-0:0']""""""",1,2387 Yonge Street,3,-79.39885285,43.70978394,M4P 2H4,Pizza
San Francesco Foods - Clinton,1,4,Little Italy,NOKaVqvi4hI8RgGjFCFIAg,"""""""['Monday 9:0-21:0', 'Tuesday 9:0-21:0', 'Wednesday 9:0-21:0', 'Thursday 9:0-22:0', 'Friday 9:0-23:0', 'Saturday 9:0-23:0', 'Sunday 9:0-22:0']""""""",1,10 Clinton Street,42,-79.4133199,43.6537655,M6J 2N8,Pizza
Piazza Monte,1,3,Scarborough,sCpa9e3HOSPuOlZUIVTWKQ,"""""""['Monday 11:0-19:0', 'Tuesday 11:0-19:0', 'Wednesday 11:0-20:0', 'Thursday 11:0-20:0', 'Friday 11:0-20:0', 'Saturday 11:0-20:0']""""""",0,297 Port Union Road,5,-79.1407734,43.7894519,M1C 2L3,Pizza
Domino's Pizza,1,3,Etobicoke,H9Ht6OgTMl3PZoX60OzCew,"""""""['Monday 11:0-0:0', 'Tuesday 11:0-0:0', 'Wednesday 11:0-0:0', 'Thursday 11:0-0:0', 'Friday 11:0-1:0', 'Saturday 11:0-1:0', 'Sunday 11:0-0:0']""""""",1,2811 Lake Shore Boulevard W,9,-79.5008951,43.601733,M8V 1H6,Pizza
Yummy Pizza,1,3.5,Brockton Village,89HTMIo00A8efEF8R8PRzw,,1,1745 Dundas Street W,11,-79.4396438,43.6501239,M6K 1V4,Pizza
Village Pizza,2,4,Dovercourt,PKcWuwMYnla-eUdqVWQTsQ,"""""""['Monday 12:0-23:0', 'Tuesday 12:0-23:0', 'Wednesday 12:0-23:0', 'Thursday 12:0-23:0', 'Friday 12:0-0:0', 'Saturday 12:0-0:0', 'Sunday 12:0-23:0']""""""",1,759 Dovercourt Road,25,-79.4292906,43.6614587,M6H 2X1,Pizza
Angelo's Coal Fired Pizza,2,4,Corktown,ygwsGEBvQ8Tj2xn4FCQQXQ,"""""""['Monday 11:0-22:0', 'Tuesday 11:0-22:0', 'Wednesday 11:0-22:0', 'Thursday 11:0-22:0', 'Friday 11:0-23:0', 'Saturday 11:0-23:0', 'Sunday 16:0-22:0']""""""",0,106 Front Street E,12,-79.3708973,43.6498245,M5A 1E1,Pizza
Planet Pizza,1,2,Kensington Market,uNH6CTVyrLdzf9e2Gw7z5A,"""""""['Monday 11:0-2:0', 'Tuesday 11:0-2:0', 'Wednesday 11:0-2:0', 'Thursday 11:0-2:0', 'Friday 11:0-4:0', 'Saturday 11:0-4:0', 'Sunday 11:0-2:0']""""""",1,339 College Street,14,-79.402669,43.6571629,M5T 1S2,Pizza
Gerrard Spaghetti & Pizza House,2,3,The Danforth,scDoMngWB0k37qgb7Ec-tQ,"""""""['Monday 12:0-21:0', 'Tuesday 12:0-21:0', 'Wednesday 12:0-21:0', 'Thursday 12:0-21:0', 'Friday 12:0-22:0', 'Saturday 13:0-22:0']""""""",1,1528 Danforth Avenue,16,-79.3248004,43.6833225,M4J 1N4,Pizza
North of Brooklyn Pizzeria,2,3,Church-Wellesley Village,xO_2oSQeVFzmHWOkk321BQ,"""""""['Monday 12:0-22:0', 'Tuesday 12:0-22:0', 'Wednesday 12:0-22:0', 'Thursday 12:0-22:0', 'Friday 12:0-23:0', 'Saturday 12:0-23:0', 'Sunday 12:0-22:0']""""""",1,469 Church Street,46,-79.3803681,43.6643898,M4Y 2C5,Pizza
Old Man Pizza,1,3.5,Parkdale,TcxgeSBXpc-twKC2-kkuDQ,"""""""['Monday 11:0-1:0', 'Tuesday 11:0-1:0', 'Wednesday 11:0-1:0', 'Thursday 11:0-1:0', 'Friday 11:0-2:0', 'Saturday 11:0-2:0', 'Sunday 11:0-2:0']""""""",1,223 Jameson Avenue,9,-79.4370061,43.6402831,M6K 2Y3,Pizza
Cora Pizza,1,4,Downtown Core,p1XLB4zo6sI09Pb4-IA23Q,"""""""['Monday 10:0-4:0', 'Tuesday 10:0-4:0', 'Wednesday 10:0-4:0', 'Thursday 10:0-4:0', 'Friday 10:0-4:0', 'Saturday 10:0-4:0', 'Sunday 10:0-4:0']""""""",1,656A Spadina Ave,37,-79.4026134,43.6633264,M5S 2H7,Pizza
Pizzaville,2,3.5,High Park,KSoltsak4QYJRhIWzaHzHw,,1,1730 Bloor Street W,11,-79.4607385,43.6545361,M6R 2Z9,Pizza
Tony's & Nick's Place,1,4,Dufferin Grove,5PYA-uKDRayqQS93YC7iuw,"""""""['Monday 11:0-22:0', 'Tuesday 11:0-22:0', 'Wednesday 11:0-22:0', 'Thursday 11:0-22:0', 'Friday 11:0-23:0', 'Saturday 11:0-23:0', 'Sunday 11:0-22:0']""""""",1,1470 Dundas St W,19,-79.4310049,43.6497355,M6J 1Y6,Pizza
Pizzaiolo,2,2.5,Swansea,a4b09m2PdOYhAA_m26Bb3w,,1,2425 Bloor St W,3,-79.4837344,43.6493759,M6S 4W4,Pizza
Madanto Pizza,1,3,Mount Pleasant and Davisville,dGu3jGAYoxG1fIZrY-5RZA,,0,2311 Yonge Street,7,-79.3983401,43.7076712,M4P 2C6,Pizza
Mamma's Pizza,1,3.5,The Beach,ugWB_hkm21s9v8xxAkmNVg,,1,2118 Queen St E,6,-79.2948458,43.6713061,M4E 1E2,Pizza
Bigman's Pizza,2,2.5,Mount Pleasant and Davisville,7VShkfLFDaTngFMd8fl5Rw,"""""""['Monday 10:0-0:0', 'Tuesday 10:0-0:0', 'Wednesday 10:0-0:0', 'Thursday 10:0-0:0', 'Friday 10:0-0:0', 'Saturday 10:0-0:0', 'Sunday 11:0-23:0']""""""",1,1528 Bayview Ave,15,-79.375025,43.704378,M4G 3B6,Pizza
Pizza Pizza,1,2,Willowdale,VYUBY9SLdrvaajeX8i3kCA,,0,181 Sheppard Avenue E,8,-79.39976501,43.76398468,M2N 3C3,Pizza
Domino's Pizza,2,2.5,Seaton Village,O3AU1lJmNYgm1FWipLnA4g,"""""""['Monday 10:0-1:0', 'Tuesday 10:0-1:0', 'Wednesday 10:0-1:0', 'Thursday 10:0-1:0', 'Friday 10:0-2:0', 'Saturday 10:0-2:0', 'Sunday 10:0-1:0']""""""",1,936 Bathurst Street,12,-79.4128918,43.6691025,M5R 3G5,Pizza
Tosto Quickfire Pizza Pasta,2,3.5,Discovery District,n9BrA1zIwlbiP1hLAc24jg,"""""""['Monday 11:0-22:0', 'Tuesday 11:0-22:0', 'Wednesday 11:0-22:0', 'Thursday 11:0-22:0', 'Friday 11:0-23:0', 'Saturday 11:0-23:0', 'Sunday 11:0-22:0']""""""",1,"""""""800 Bay Street, Unit 101""""""",49,-79.3864087,43.661136,M5S 3A9,Pizza
Pizza Pizza,2,2.5,The Danforth,gpb18i6bLxl5feUrJFmxTQ,"""""""['Monday 11:0-2:0', 'Tuesday 11:0-2:0', 'Wednesday 11:0-2:0', 'Thursday 11:0-3:0', 'Friday 11:0-3:0', 'Saturday 11:0-3:0', 'Sunday 11:0-2:0']""""""",1,2795 Danforth Avenue,4,-79.2956179,43.6893066,M4C 1M2,Pizza
Chito's Pizza,1,4,Bloordale Village,5X3dzKWnBdV-KmxdGEPb_Q,"""""""['Monday 10:0-23:0', 'Tuesday 10:0-23:0', 'Wednesday 10:0-23:0', 'Thursday 10:0-23:0', 'Friday 10:0-0:0', 'Saturday 10:0-0:0', 'Sunday 10:0-23:0']""""""",1,1308 Bloor Street W,33,-79.4425498,43.6583962,M6H 1N9,Pizza
The Standard Pizza & Pasta Bar,2,3,Little Italy,kExmc2lS8BhFFlh9sjvuSA,"""""""['Monday 10:30-2:0', 'Tuesday 10:30-2:0', 'Wednesday 10:30-2:0', 'Thursday 10:30-2:0', 'Friday 10:30-2:0', 'Saturday 10:30-2:0', 'Sunday 10:30-2:0']""""""",1,667 College Street,51,-79.4168398,43.6549406,M6G 1B9,Pizza
Freshslice Pizza,1,3,Little Italy,1zrCYNcoBRO0ePhfuNyoCQ,,0,619 College Street,10,-79.4148142,43.6549094,M6G,Pizza
Pizzaiolo,1,3,Church-Wellesley Village,ZekRYrQz3zatQeHpkiwW_w,,1,707 Yonge St,17,-79.3862878,43.6693984,M4Y 2B6,Pizza
Pizza Pizza,1,2.5,Entertainment District,b13pUQ9-zPZtQd-9V6mFug,,0,20 Blue Jays Way,20,-79.391824,43.6438459,M5V 2Y5,Pizza
John's Italian Caffe,2,3.5,Downtown Core,lZlaPghRe2Z1EkMUsFKOuw,"""""""['Monday 11:0-23:0', 'Tuesday 11:0-23:0', 'Wednesday 11:0-23:0', 'Thursday 11:0-23:0', 'Friday 11:0-23:0', 'Saturday 11:0-23:0', 'Sunday 11:0-23:0']""""""",0,27 Baldwin Street,34,-79.3931943,43.6559335,M5T 1L1,Pizza
Caffe Doria,2,3,Summer Hill,QTZdKevSqb4KkWwRy-Qqrg,"""""""['Monday 8:0-21:0', 'Tuesday 8:0-21:0', 'Wednesday 8:0-21:0', 'Thursday 8:0-21:0', 'Friday 8:0-21:0', 'Saturday 8:0-17:0', 'Sunday 9:0-16:0']""""""",0,1094 Yonge Street,23,-79.3901113,43.6783506,M4W 2L6,Pizza
Pizzaville,1,3.5,Bickford Park,Y7Mt00v9wDhyz7k3AlXKzA,,1,796 College Street,6,-79.42163385,43.65478631,M6G 3R1,Pizza
North of Brooklyn Pizzeria,1,3.5,West Queen West,49fcUkW5tOHlqBakrWTMzQ,"""""""['Monday 12:0-22:0', 'Tuesday 12:0-22:0', 'Wednesday 12:0-22:0', 'Thursday 12:0-23:0', 'Friday 12:0-23:0', 'Saturday 12:0-23:0', 'Sunday 12:0-22:0']""""""",1,650 1/2 Queen Street W,133,-79.40659538,43.64694522,M6J 1E4,Pizza
Dundas Pizza,1,3,The Junction,OSqxmZQ3YoDm17KWXEKgew,,1,3088 Dundas Street W,8,-79.472741,43.6657719,M6P 1Z8,Pizza
Pizzaiolo,2,3.5,The Danforth,E5twyByVAFFtbNnewMYFwQ,,1,588 Danforth Ave,7,-79.3467497,43.6786954,M4K 1P7,Pizza
Pizza Pizza,2,2.5,Harbourfront,uuDxjiidiIb6dTsV9edUTA,"""""""['Monday 11:0-2:0', 'Tuesday 11:0-2:0', 'Wednesday 11:0-2:0', 'Thursday 11:0-3:0', 'Friday 11:0-3:0', 'Saturday 11:0-3:0', 'Sunday 11:0-2:0']""""""",1,"""""""208 Queens Quay W, Unit 9 10""""""",5,-79.3817311,43.640257,M5J 2Y5,Pizza
Pizzaiolo,1,3,Entertainment District,1NyHpXJqSLHnvDCOW0nJDg,"""""""['Monday 10:0-23:0', 'Tuesday 10:0-23:0', 'Wednesday 10:0-23:0', 'Thursday 10:0-23:0', 'Friday 10:0-23:0', 'Saturday 10:0-23:0', 'Sunday 10:0-23:0']""""""",1,270 Adelaide Street W,31,-79.3900614,43.6478918,M5H,Pizza
Bar Salumi,3,4,Parkdale,5aBEf-LO_mic_CMqLLbDaA,"""""""['Tuesday 18:0-22:0', 'Wednesday 18:0-22:0', 'Thursday 18:0-23:0', 'Friday 18:0-23:0', 'Saturday 18:0-23:0']""""""",0,1704 Queen Street W,8,-79.445148,43.639038,M6R 1B2,Pizza
Pizza Nova,1,3.5,City Place,Tp4EPLp3LOu-K5_FlYSPEg,,1,365 Front St W,9,-79.3918904,43.6432211,M5V 3S8,Pizza
Classico Pizza & Pasta,2,3.5,Swansea,AP9vhzzu0H-ZOxyEStlegQ,"""""""['Monday 11:0-23:0', 'Tuesday 11:0-23:0', 'Wednesday 11:0-23:0', 'Thursday 11:0-23:0', 'Friday 11:0-23:0', 'Saturday 11:0-23:0', 'Sunday 11:0-23:0']""""""",0,2457 Bloor Street W,17,-79.4846163,43.6490049,M6S 1P7,Pizza
Mr. Pizza,2,2,Harbourfront,SSiOTBIqZwy8b_hxv9cPvg,"""""""['Monday 10:0-1:0', 'Tuesday 15:0-0:0', 'Wednesday 15:0-0:0', 'Thursday 15:0-0:0', 'Friday 15:0-4:0', 'Saturday 15:0-4:0', 'Sunday 15:0-0:0']""""""",1,16 Yonge Street,6,-79.3759552,43.643375,M5E 2A1,Pizza
Panago Pizza,2,3.5,Ryerson,ACQ1kbWkPToh0BsAQ5TGIQ,"""""""['Monday 11:0-23:0', 'Tuesday 11:0-23:0', 'Wednesday 11:0-23:0', 'Thursday 11:0-23:0', 'Friday 11:0-0:0', 'Saturday 11:0-0:0', 'Sunday 11:0-23:0']""""""",1,E-44 Gerrard Street W,23,-79.379686,43.659619,M5B 2K2,Pizza
Basso Pizzeria,2,4.5,Corktown,WlINkrwGmUzyR-hoG-pIlw,"""""""['Monday 17:0-22:0', 'Tuesday 11:30-23:0', 'Wednesday 11:30-23:0', 'Thursday 11:30-23:0', 'Friday 11:30-2:0', 'Saturday 16:0-1:0', 'Sunday 16:0-22:0']""""""",1,320 Queen Street E,11,-79.3652656,43.6555457,M5A 1S8,Pizza
Love At First Bite,1,3.5,Downtown Core,XhGzZwUUMEblTqwlz875Cw,"""""""['Monday 10:30-23:0', 'Tuesday 10:30-23:0', 'Wednesday 10:30-23:0', 'Thursday 10:30-23:0', 'Friday 10:30-23:0', 'Saturday 16:30-23:0']""""""",0,96 Gerrard Street E,11,-79.3774717,43.660284,M5B 1G7,Pizza
Parma Pizza,1,4.5,Etobicoke,x-38eLYLb2wi3jsbd8QOAg,,1,716 Scarlett Road,8,-79.5206837,43.6959426,M9P 1W5,Pizza
Pizza Nova,1,4,Downtown Core,OJqLCq4_ww7jGxiGnTwC-Q,,1,997 Bay St,14,-79.3871216,43.6653215,M5S 3C4,Pizza
Pizza Pizza,2,2.5,Bloordale Village,a9usBo16KZ-gxOJXdryNlQ,"""""""['Monday 11:0-2:0', 'Tuesday 11:0-2:0', 'Wednesday 11:0-2:0', 'Thursday 11:0-3:0', 'Friday 11:0-3:0', 'Saturday 11:0-3:0', 'Sunday 11:0-2:0']""""""",1,1193 Bloor Street W,8,-79.4393633,43.6589038,M6H 1N4,Pizza
Fusaro's,2,4,Corktown,C4sVRSWeWuXo0OtnXewsjQ,"""""""['Monday 9:0-21:0', 'Tuesday 9:0-21:0', 'Wednesday 9:0-21:0', 'Thursday 9:0-21:0', 'Friday 9:0-21:0', 'Saturday 10:0-16:0']""""""",1,294 Richmond Street E,53,-79.3694324,43.6534228,M5A 4S7,Pizza
Super Point,2,4,Little Portugal,7YM7fxwtWYiHGfcsz2Ei1g,,1,184 Ossington Avenue,12,-79.4206503,43.6484167,M6J 2Z7,Pizza
Magic Oven,2,3,Yonge and Eglinton,W-rtsGVJBl5C-HkCyQYH0w,"""""""['Monday 11:0-22:0', 'Tuesday 11:0-22:0', 'Wednesday 11:0-22:0', 'Thursday 11:0-23:0', 'Friday 11:0-23:0', 'Saturday 11:0-23:0', 'Sunday 12:0-22:0']""""""",1,302 Eglinton Avenue W,5,-79.4081988,43.7048099,M4R 1B2,Pizza
Pizzaiolo,1,3,The Annex,7xGMDGo3m1H40i-QNN7GXg,"""""""['Monday 10:0-23:0', 'Tuesday 10:0-23:0', 'Wednesday 10:0-23:0', 'Thursday 10:0-23:0', 'Friday 10:0-4:0', 'Saturday 10:0-4:0', 'Sunday 10:0-23:0']""""""",0,454 Bloor Street,11,-79.4090922,43.6656345,M5S 1X8,Pizza
Big House Pizza,2,4,The Danforth,u3KvUpdWnl0Jhjhp3pVg5w,"""""""['Monday 11:30-22:0', 'Tuesday 11:30-22:0', 'Wednesday 11:30-22:0', 'Thursday 11:30-22:0', 'Friday 11:30-23:0', 'Saturday 11:30-23:0', 'Sunday 11:30-22:0']""""""",1,962 Danforth Avenue,54,-79.3379821,43.6804388,M4J 1L8,Pizza
Dino's Wood Burning Pizza,2,4,Etobicoke,wuYKpHyjIfyvMR9YlwHn6Q,,1,820 The Queensway,52,-79.5082696,43.6250907,M8Z 1N6,Pizza
Pizzaiolo,1,4,Downtown Core,j9HtS2p2mJRyKiNhLP_e7w,"""""""['Monday 10:0-23:0', 'Tuesday 10:0-23:0', 'Wednesday 10:0-23:0', 'Thursday 10:0-23:0', 'Friday 10:0-23:0', 'Saturday 10:0-23:0', 'Sunday 10:0-23:0']""""""",1,550 Yonge St,12,-79.3844763,43.6644067,M4Y 1Y8,Pizza
Pizzaiolo,1,3,St. Lawrence,aDGp0NnKuVH3_pOCfZwqsA,"""""""['Monday 10:0-23:0', 'Tuesday 10:0-23:0', 'Wednesday 10:0-23:0', 'Thursday 10:0-23:0', 'Friday 10:0-23:0', 'Saturday 10:0-23:0', 'Sunday 10:0-23:0']""""""",1,1 Toronto St,21,-79.37755955,43.64904477,M5C 3B2,Pizza
Papa CEO King Slice,1,3,Downtown Core,RWFC8Ht9gWcRc2vX57OPsA,"""""""['Monday 10:0-4:0', 'Tuesday 10:0-4:0', 'Wednesday 10:0-4:0', 'Thursday 10:0-4:0', 'Friday 10:0-4:0', 'Saturday 10:0-4:0', 'Sunday 10:0-4:0']""""""",1,654 Spadina Avenue,39,-79.4025875,43.6632763,M5S 2H7,Pizza
Maker Pizza,2,4,Alexandra Park,jqp--3Unhkr0a5_ofPWLEw,"""""""['Monday 11:30-23:0', 'Tuesday 11:30-23:0', 'Wednesday 11:30-23:0', 'Thursday 11:30-0:0', 'Friday 11:30-0:0', 'Saturday 11:30-0:0', 'Sunday 11:30-23:0']""""""",1,55a Cameron Street,57,-79.39798235,43.65009078,M5T 2H1,Pizza
Magic Oven,2,4,The Danforth,3ffpa2xSDjK4XhF2E-jp1A,"""""""['Monday 11:0-22:0', 'Tuesday 11:0-22:0', 'Wednesday 11:0-22:0', 'Thursday 11:0-22:0', 'Friday 11:0-23:0', 'Saturday 11:0-23:0', 'Sunday 12:0-22:0']""""""",1,1450 Danforth Avenue,7,-79.3263672,43.6829336,M4J 1N4,Pizza
Pizzaiolo,1,3,Downtown Core,OzhQsMgVIBBYWJtaVIGScg,"""""""['Monday 10:0-22:0', 'Tuesday 10:0-22:0', 'Wednesday 10:0-22:0', 'Thursday 10:0-22:0', 'Friday 10:0-22:0', 'Saturday 10:0-22:0', 'Sunday 10:0-22:0']""""""",1,289 Dundas St W,13,-79.390985,43.6542746,M5T 1G1,Pizza
Pizzaiolo,1,3.5,West Queen West,7eSbvHOOpRmEwywDOclevQ,,1,624 Queen St W,19,-79.4055594,43.6470079,M6J 1E4,Pizza
Valley's Top Notch,1,3.5,The Danforth,fiFNpXVk4OkW76vzDtL7JQ,"""""""['Monday 16:0-22:0', 'Tuesday 16:0-22:0', 'Wednesday 16:0-22:0', 'Thursday 16:0-22:0', 'Friday 16:0-23:0', 'Saturday 15:0-23:0', 'Sunday 15:0-22:0']""""""",0,1417 Danforth Avenue,7,-79.3272382,43.6823561,M4J 1N2,Pizza
Danforth Pizza House,1,4,The Danforth,NtII1vBcP1CiAs54kY1JQw,"""""""['Monday 11:30-21:0', 'Tuesday 11:30-21:0', 'Wednesday 11:30-21:0', 'Thursday 11:30-21:0', 'Friday 11:30-22:0', 'Saturday 12:0-22:0', 'Sunday 12:0-21:0']""""""",1,920 Danforth Avenue,97,-79.3388295,43.6804033,M4J 1L9,Pizza
Amaro Pizza,1,3,The Danforth,miAqpBAJQYJsTueEvl4z0w,"""""""['Monday 11:0-23:0', 'Tuesday 11:0-23:0', 'Wednesday 11:0-23:0', 'Thursday 11:0-23:0', 'Friday 11:0-0:0', 'Saturday 12:0-0:0']""""""",0,962 Danforth Avenue,10,-79.3380192,43.6804194,M4J 1L9,Pizza
King Slice,1,3.5,West Queen West,8al-XRt5nuIize8_STWffQ,"""""""['Monday 11:0-0:0', 'Tuesday 11:0-0:0', 'Wednesday 11:0-0:0', 'Thursday 11:0-0:0', 'Friday 11:0-4:30', 'Saturday 11:0-4:30', 'Sunday 11:0-0:0']""""""",1,1130 Queen Street W,40,-79.4239029,43.6431907,M6J,Pizza
Descendant Detroit Style Pizza,2,4.5,Leslieville,SxvKjtbq5qRlFoXrU8Bo9Q,"""""""['Tuesday 11:30-22:0', 'Wednesday 11:30-22:0', 'Thursday 11:30-22:0', 'Friday 11:30-22:0', 'Saturday 11:30-22:0', 'Sunday 11:30-22:0']""""""",1,1168 Queen Street E,125,-79.33216953,43.66277821,M4M 1L5,Pizza
Piazza Manna,1,3,Church-Wellesley Village,xHFIFxWvny6CDnKvNk2UKw,,0,175 Bloor Street E,5,-79.3824126,43.6708866,M4W 3R8,Pizza
Grillway Subs & Burgers,1,4,Bloor-West Village,I_3P0ns6_3najPBxn629nw,,1,523 Annette Street,31,-79.47980528,43.6599496,M6P 1S1,Pizza
Magic Oven,2,2.5,The Annex,ryI7UszOtakwc8goHI3ojA,,0,270 Dupont Street,31,-79.4069091,43.6750119,M5R 1V7,Pizza
Vinnie's Pizza & Pasta,1,3.5,Downtown Core,_440MLqL4gEIKnkD5aKqxQ,,0,595 Bay St,5,-79.3832604,43.6561977,M5G 2C2,Pizza
Domino's Pizza,2,4,The Danforth,6d7aOsiinhme6BB7s2QmZQ,"""""""['Monday 11:0-0:0', 'Tuesday 11:0-0:0', 'Wednesday 11:0-0:0', 'Thursday 11:0-0:0', 'Friday 11:0-2:0', 'Saturday 11:0-2:0', 'Sunday 11:0-0:0']""""""",1,873 Danforth Ave,8,-79.3395009,43.6796679,M4J 1L8,Pizza
Hey Lucy,2,3.5,Entertainment District,PXN0l42g6IWp18NGJ7yn5w,"""""""['Monday 16:0-23:30', 'Tuesday 11:30-23:30', 'Wednesday 11:30-2:0', 'Thursday 11:30-0:0', 'Friday 11:30-2:0', 'Saturday 11:30-2:0', 'Sunday 11:30-22:0']""""""",1,295 King Street W,146,-79.3901316,43.6463276,M5V 1J5,Pizza
Pizza Thick,2,4,Leslieville,EluIN94_26TTrTdtGI2aBQ,"""""""['Tuesday 12:0-21:0', 'Wednesday 12:0-21:0', 'Thursday 12:0-21:0', 'Friday 12:0-22:0', 'Saturday 12:0-22:0', 'Sunday 12:0-21:0']""""""",1,1026 Queen Street E,15,-79.338442,43.66143,M4M 1K4,Pizza
Panago Pizza,2,4,Mount Pleasant and Davisville,UfcwUHtPrjRDL8irHCWqpQ,"""""""['Monday 11:0-23:0', 'Tuesday 11:0-23:0', 'Wednesday 11:0-23:0', 'Thursday 11:0-23:0', 'Friday 11:0-0:0', 'Saturday 11:0-0:0', 'Sunday 11:0-23:0']""""""",1,188 Eglinton Avenue East,11,-79.3923668,43.708213,M4P 1K2,Pizza
Levetto,2,4.5,Chinatown,qUWqjjjfpB2-4P3He5rsKw,"""""""['Monday 11:0-22:0', 'Tuesday 11:0-22:0', 'Wednesday 11:0-22:0', 'Thursday 10:0-22:0', 'Friday 11:0-23:0', 'Saturday 11:0-23:0', 'Sunday 11:0-22:0']""""""",1,"""""""382 Spadina Avenue, Main Floor""""""",68,-79.3993028,43.6552886,M5T 2G5,Pizza
Bellissimo Pizzeria & Ristorante,2,3,St. Lawrence,2KduMkQeDDgVHwsOGoIi_A,"""""""['Monday 11:0-1:0', 'Tuesday 11:0-1:0', 'Wednesday 11:0-1:0', 'Thursday 11:0-1:0', 'Friday 11:0-1:0', 'Saturday 16:0-1:0']""""""",1,164 The Esplanade,34,-79.368775,43.648843,M5A 4A5,Pizza
Paramount Fine Foods,2,2,St. Lawrence,MYD9cd9lbYCqN-B6DgCtkQ,,1,85 Front Street,23,-79.3723437,43.6487496,M5E 1B8,Pizza
Calabrese Pizza,1,3.5,Etobicoke,wY8EmrjhokXEgSeCOJwoqQ,"""""""['Monday 11:0-23:0', 'Tuesday 11:0-23:0', 'Wednesday 11:0-23:0', 'Thursday 11:0-0:0', 'Friday 11:0-1:0', 'Saturday 11:0-1:0', 'Sunday 14:0-22:0']""""""",1,3019 Lake Shore Boulevard W,18,-79.50851966,43.60003831,M8V 1K2,Pizza
Corrado's Authentic Italian Cuisine,2,4,East York,Vl7knG5rR45zT97JdkCmMQ,"""""""['Monday 11:0-20:0', 'Tuesday 11:0-20:0', 'Wednesday 11:0-20:0', 'Thursday 11:0-20:0', 'Friday 11:0-20:0', 'Saturday 16:0-21:0']""""""",0,471 Cosburn Avenue,5,-79.3339954,43.6928272,M4J 2N5,Pizza
Centro Pizza,1,2,Scarborough,4gPnMySEGgUAslBGYsJm5w,,1,3408 Kingston Road,3,-79.2394761,43.716316,M1M,Pizza
Mattachioni,2,4.5,The Junction,dGuRCJV66l-K7flfrwEgaA,"""""""['Monday 8:0-22:0', 'Tuesday 8:0-22:0', 'Wednesday 8:0-22:0', 'Thursday 8:0-22:0', 'Friday 8:0-22:0', 'Saturday 8:0-22:0', 'Sunday 8:0-22:0']""""""",1,1617 Dupont Street,19,-79.45497255,43.66487589,M6P 3S8,Pizza
Scaddabush Italian Kitchen & Bar,2,3,Scarborough,FfF8XGFf8_BSlWSjIgqeQg,"""""""['Monday 11:30-1:0', 'Tuesday 11:30-1:0', 'Wednesday 11:30-1:0', 'Thursday 11:30-2:0', 'Friday 11:30-2:0', 'Saturday 11:30-2:0', 'Sunday 11:30-1:0']""""""",1,580 Progress Avenue,54,-79.25456938,43.77772851,M1P 2K2,Pizza
Invictus,2,1.5,Corso Italia,3MmNFU-6po5M4hKRnQZusw,"""""""['Tuesday 15:0-0:0', 'Wednesday 15:0-0:0', 'Thursday 15:0-0:0', 'Friday 15:0-0:0', 'Saturday 15:0-0:0', 'Sunday 15:0-0:0']""""""",0,1331 St Clair Avenue W,5,-79.44945921,43.67628259,M6E 1C2,Pizza
Peter's Cajun Creole Pizza,2,3.5,Cabbagetown,QxByT5k1Og8LgddjHI9kag,"""""""['Monday 16:0-1:0', 'Tuesday 11:0-1:0', 'Wednesday 11:0-1:0', 'Thursday 11:0-1:0', 'Friday 11:0-1:0', 'Saturday 16:0-1:0', 'Sunday 16:0-0:0']""""""",1,415 Parliament Street,25,-79.3670113,43.6624689,M5A 2Z4,Pizza
Yogi's Pizza & Wings,1,2,Scarborough,n_D9ni3-b7AfKH8AnCZp0A,"""""""['Monday 11:0-23:0', 'Tuesday 11:0-23:0', 'Wednesday 11:0-23:0', 'Thursday 11:0-23:0', 'Friday 11:0-23:0', 'Saturday 11:0-23:0', 'Sunday 11:0-23:0']""""""",1,"""""""400 Sewells Road, Unit 4""""""",4,-79.2109156,43.8167978,M1B 5H3,Pizza
Pizza Pizza,1,2.5,Church-Wellesley Village,D9LMDxJTbMIP5drSgWp1SQ,"""""""['Monday 11:0-2:0', 'Tuesday 11:0-2:0', 'Wednesday 11:0-2:0', 'Thursday 11:0-3:0', 'Friday 11:0-3:0', 'Saturday 11:0-3:0', 'Sunday 11:0-2:0']""""""",1,471 Yonge Street,13,-79.3830445,43.6618689,M4Y 1A1,Pizza
I Wings,1,3.5,Alexandra Park,2j5hnwYzS-YLJn6IFqloCw,"""""""['Monday 11:0-23:0', 'Tuesday 11:0-23:0', 'Wednesday 11:0-23:0', 'Thursday 11:0-23:0', 'Friday 11:0-0:0', 'Saturday 11:0-0:0', 'Sunday 11:0-23:0']""""""",0,404 Queen Street W,4,-79.3972345,43.6486781,M5V 2A6,Pizza
